"","ID","DATE","ELEMENT","VALUE","MFLAG","QFLAG","SFLAG","NAME","LONGITUDE","LATITUDE","ELEVATION","elevation","tmax_normal_annual","vpdmax_normal_annual","tdmean_normal_annual","tmean_normal_annual","tmin_normal_annual","vpdmin_normal_annual","ppt_normal_annual","slope","aspect","ppt_2021_02","ppt_2021_03","CV_GAM_MODEL","CV_RF_MODEL","CV_LM_MODEL","CV_GAM_RASTER_PREDS","CV_RF_RASTER_PREDS","CV_LM_RASTER_PREDS","CV_GAM_SNODAS_50_50","CV_GAM_SNODAS_60_40","CV_GAM_SNODAS_70_30","CV_GAM_SNODAS_80_20","CV_GAM_SNODAS_90_10","CV_GAM_SNODAS_100","SNODAS_VALUE","UA_VALUE","DAYMET_VALUE"
"72634","USS0009J01S",1982-04-01,"WESD",358.1," "," ","T","King's Cabin",-109.54,40.72,2659.1,2747,9.92000007629395,10.1000003814697,-6.69000005722046,2.34999990463257,-5.23000001907349,1.16999995708466,671.659973144531,4.78612435679289,87.9330736332216,27.7395992279053,98.5160980224609,99999,NA,NA,99999,99999,99999,NA,NA,NA,NA,NA,NA,99999,99999,99999
"88971","USS0009J05S",1982-04-01,"WESD",386.1," "," ","T","Mosby Mtn.",-109.89,40.61,2898.6,2940,9,9.51000022888184,-7.94000005722046,1.80999994277954,-5.3899998664856,1.72000002861023,741.030029296875,1.89678728327232,118.85039185745,22.4615993499756,81.2182006835938,99999,NA,NA,99999,99999,99999,NA,NA,NA,NA,NA,NA,99999,99999,99999
"119041","USS0009J16S",1982-04-01,"WESD",348," "," ","T","Trout Creek",-109.67,40.74,2901.1,2854,9.28999996185303,9.56999969482422,-7.01999998092651,1.82000005245209,-5.65999984741211,1.17999994754791,697.659973144531,1.48509419801237,267.774829830569,24.4925994873047,90.3390960693359,99999,NA,NA,99999,99999,99999,NA,NA,NA,NA,NA,NA,99999,99999,99999
"151374","USS0009L03S",1982-04-01,"WESD",502.9," "," ","T","Lasal Mountain",-109.27,38.48,2913.9,2849,11.539999961853,10.9399995803833,-6.28000020980835,5.32999992370605,-0.879999995231628,2.69000005722046,834.97998046875,7.48796762321208,301.127208872154,51.4824981689453,92.2237014770508,99999,NA,NA,99999,99999,99999,NA,NA,NA,NA,NA,NA,99999,99999,99999
"217497","USS0010J10S",1982-04-01,"WESD",401.3," "," ","T","Lakefork #1",-110.43,40.6,3174.5,3138,8.06999969482422,8.9399995803833,-8.5600004196167,0.430000007152557,-7.21000003814697,1.53999996185303,678.039978027344,1.0087942885972,244.612222176501,50.0083999633789,66.1479949951172,99999,NA,NA,99999,99999,99999,NA,NA,NA,NA,NA,NA,99999,99999,99999
"242328","USS0010J18S",1982-04-01,"WESD",226.1," "," ","T","Rock Creek",-110.69,40.55,2404.6,2404,11.6800003051758,11.9700002670288,-5.67999982833862,4.17000007629395,-3.34999990463257,1.89999997615814,609.840026855469,1.17958444335404,230.540740031152,53.225700378418,48.5750999450684,99999,NA,NA,99999,99999,99999,NA,NA,NA,NA,NA,NA,99999,99999,99999
"258665","USS0010J20S",1982-04-01,"WESD",548.6," "," ","T","Steel Creek Park",-110.5,40.91,3109,3086,8.26000022888184,8.94999980926514,-7.3899998664856,1.04999995231628,-6.17000007629395,0.949999988079071,762.510009765625,3.6784973319539,32.0648626684663,86.8357009887695,85.4633941650391,99999,NA,NA,99999,99999,99999,NA,NA,NA,NA,NA,NA,99999,99999,99999
"296578","USS0010J26S",1982-04-01,"WESD",629.9," "," ","T","Five Points Lake",-110.47,40.72,3334.5,3378,7.01999998092651,7.59999990463257,-7.3899998664856,-0.0199999995529652,-7.05999994277954,1.04999995231628,899.590026855469,5.76543064390204,140.480202163667,78.8807983398438,68.4054946899414,99999,NA,NA,99999,99999,99999,NA,NA,NA,NA,NA,NA,99999,99999,99999
"312915","USS0010J30S",1982-04-01,"WESD",731.5," "," ","T","Brown Duck",-110.59,40.58,3230.9,3176,8.05000019073486,8.86999988555908,-8.47999954223633,0.899999976158142,-6.26000022888184,1.60000002384186,887,1.74620744356898,90.9459424829086,75.3267974853516,79.9032974243164,99999,NA,NA,99999,99999,99999,NA,NA,NA,NA,NA,NA,99999,99999,99999
"328167","USS0010J35S",1982-04-01,"WESD",495.3," "," ","T","Lily Lake",-110.8,40.86,2790.7,2776,10.0600004196167,11.0600004196167,-6.98999977111816,2.22000002861023,-5.63000011444092,1,740.25,3.5403808747547,6.02004792518575,71.9704971313477,65.0101013183594,99999,NA,NA,99999,99999,99999,NA,NA,NA,NA,NA,NA,99999,99999,99999
"343760","USS0010J43S",1982-04-01,"WESD",464.8," "," ","T","Chepeta",-110.01,40.77,3228.4,3188,7.23000001907349,7.8899998664856,-7.38000011444092,0.219999998807907,-6.78999996185303,1.27999997138977,799.5,3.63135708957878,208.798117965602,41.9619979858398,83.6820983886719,99999,NA,NA,99999,99999,99999,NA,NA,NA,NA,NA,NA,99999,99999,99999
"360097","USS0010J44S",1982-04-01,"WESD",586.7," "," ","T","Hayden Fork",-110.88,40.8,2807.8,2815,9.85999965667725,10.7700004577637,-7.23000001907349,1.94000005722046,-5.98000001907349,0.949999988079071,872.460021972656,4.49553122934345,89.7249163672731,102.256896972656,80.1116943359375,99999,NA,NA,99999,99999,99999,NA,NA,NA,NA,NA,NA,99999,99999,99999
"376434","USS0010J52S",1982-04-01,"WESD",957.6," "," ","T","Trial Lake",-110.95,40.68,3045.6,2985,8.59000015258789,9.34000015258789,-6.84999990463257,1.75999999046326,-5.07999992370605,1.37999999523163,1015.75,1.3284499441869,183.281094004999,120.689498901367,75.6825942993164,99999,NA,NA,99999,99999,99999,NA,NA,NA,NA,NA,NA,99999,99999,99999
"397204","USS0010K01S",1982-04-01,"WESD",434.3," "," ","T","Indian Canyon",-110.75,39.89,2796.5,2716,11.1400003433228,11.3400001525879,-6,4.69000005722046,-1.75999999046326,3,637.429992675781,4.33716023420457,303.421979517047,50.1571998596191,64.0961990356445,99999,NA,NA,99999,99999,99999,NA,NA,NA,NA,NA,NA,99999,99999,99999
"413541","USS0010K02S",1982-04-01,"WESD",472.4," "," ","T","White River #1",-110.99,39.96,2633.8,2643,10.8199996948242,11.039999961853,-5.71000003814697,4.17000007629395,-2.48000001907349,2.38000011444092,594.22998046875,5.27568472332334,256.525474316617,55.4116973876953,48.4776000976562,99999,NA,NA,99999,99999,99999,NA,NA,NA,NA,NA,NA,99999,99999,99999
"454275","USS0011H08S",1982-04-01,"WESD",1366.5," "," ","T","Ben Lomond Peak",-111.94,41.38,2438.4,2050,12.5200004577637,12.3500003814697,-3.75,6.3600001335144,0.189999997615814,2.79999995231628,1422.57995605469,11.1265212121201,70.5683803513235,131.720397949219,35.2219009399414,99999,NA,NA,99999,99999,99999,NA,NA,NA,NA,NA,NA,99999,99999,99999
"470612","USS0011H21S",1982-04-01,"WESD",810.3," "," ","T","Horse Ridge",-111.45,41.31,2487.2,2485,10.3500003814697,9.98999977111816,-4.07999992370605,4.78000020980835,-0.800000011920929,2.46000003814697,932.130004882812,0.435409999082621,160.692614821965,109.118896484375,31.978199005127,99999,NA,NA,99999,99999,99999,NA,NA,NA,NA,NA,NA,99999,99999,99999
"486949","USS0011H25S",1982-04-01,"WESD",426.7," "," ","T","Little Bear",-111.83,41.41,1994.6,1987,12.7200002670288,12.960000038147,-4.15000009536743,6.28999996185303,-0.140000000596046,2.77999997138977,905.559997558594,7.07004097484233,322.309229886841,93.6112976074219,33.2021980285645,99999,NA,NA,99999,99999,99999,NA,NA,NA,NA,NA,NA,99999,99999,99999
"502542","USS0011H30S",1982-04-01,"WESD",629.9," "," ","T","Ben Lomond Trail",-111.92,41.38,1776.7,1791,13.8000001907349,14.3500003814697,-4.07000017166138,6.96000003814697,0.119999997317791,2.96000003814697,1071.18005371094,4.04709191447104,93.7728085489376,131.720397949219,35.2219009399414,99999,NA,NA,99999,99999,99999,NA,NA,NA,NA,NA,NA,99999,99999,99999
"527931","USS0011H36S",1982-04-01,"WESD",1371.6," "," ","T","Tony Grove Lake",-111.63,41.9,2582.9,2586,9.05000019073486,8.6899995803833,-4.26999998092651,3.75999999046326,-1.52999997138977,2.04999995231628,1208.91003417969,3.30430891537223,186.388134160072,187.05729675293,38.336498260498,99999,NA,NA,99999,99999,99999,NA,NA,NA,NA,NA,NA,99999,99999,99999
"544268","USS0011H37S",1982-04-01,"WESD",795," "," ","T","Bug Lake",-111.42,41.68,2423.2,2507,10.0100002288818,10.3100004196167,-4.92000007629395,4.01000022888184,-1.99000000953674,2.16000008583069,772.22998046875,1.74798830921864,209.062748480968,106.781997680664,32.6759986877441,99999,NA,NA,99999,99999,99999,NA,NA,NA,NA,NA,NA,99999,99999,99999
"560605","USS0011H55S",1982-04-01,"WESD",670.6," "," ","T","Dry Bread Pond",-111.54,41.41,2545.1,2515,9.89000034332275,9.67000007629395,-4.34999990463257,4.32000017166138,-1.25999999046326,2.32999992370605,788.739990234375,2.78678558411374,247.987252610088,107.969497680664,42.6879005432129,99999,NA,NA,99999,99999,99999,NA,NA,NA,NA,NA,NA,99999,99999,99999
"576942","USS0011H57S",1982-04-01,"WESD",866.1," "," ","T","Monte Cristo",-111.5,41.47,2731,2697,8.65999984741211,8.75,-5.15999984741211,3.15000009536743,-2.35999989509583,1.98000001907349,998.820007324219,1.25634628366293,304.212471539667,141.50569152832,48.8178977966309,99999,NA,NA,99999,99999,99999,NA,NA,NA,NA,NA,NA,99999,99999,99999
"613336","USS0011J01S",1982-04-01,"WESD",828," "," ","T","Chalk Creek #1",-111.05,40.85,2741.1,2887,8.73999977111816,9.30000019073486,-6.40000009536743,2.72000002861023,-3.30999994277954,1.78999996185303,1056.92004394531,2.82926220198967,91.6048646992103,104.362098693848,92.0610961914062,99999,NA,NA,99999,99999,99999,NA,NA,NA,NA,NA,NA,99999,99999,99999
"629673","USS0011J02S",1982-04-01,"WESD",535.9," "," ","T","Chalk Creek #2",-111.07,40.89,2486.6,2454,11.2700004577637,11.6300001144409,-5.25,4.61999988555908,-2.03999996185303,2.11999988555908,734.25,5.67295699457566,319.575750428287,65.3061981201172,54.2271003723145,99999,NA,NA,99999,99999,99999,NA,NA,NA,NA,NA,NA,99999,99999,99999
"649699","USS0011J08S",1982-04-01,"WESD",662.9," "," ","T","Strawberry Divide",-111.21,40.16,2475.9,2495,11.8400001525879,12.1899995803833,-5.09000015258789,4.92000007629395,-2.00999999046326,2.32999992370605,730.950012207031,5.74489855501885,103.968250946965,72.3123016357422,37.7078971862793,99999,NA,NA,99999,99999,99999,NA,NA,NA,NA,NA,NA,99999,99999,99999
"666036","USS0011J11S",1982-04-01,"WESD",1143," "," ","T","Farmington",-111.82,40.99,2438.4,2150,11.7600002288818,11.1000003814697,-3.73000001907349,5.57000017166138,-0.620000004768372,2.38000011444092,1131.77001953125,0.736637377466184,251.158862176166,156.68359375,71.0698013305664,99999,NA,NA,99999,99999,99999,NA,NA,NA,NA,NA,NA,99999,99999,99999
"689348","USS0011J21S",1982-04-01,"WESD",1028.7," "," ","T","Timpanogos Divide",-111.62,40.43,2481.1,2547,10.3999996185303,9.78999996185303,-4.30000019073486,5.34000015258789,0.280000001192093,3.03999996185303,1015.34997558594,9.92744006770794,24.6721777132582,80.8000946044922,84.3266983032227,99999,NA,NA,99999,99999,99999,NA,NA,NA,NA,NA,NA,99999,99999,99999
"709405","USS0011J23S",1982-04-01,"WESD",510.5," "," ","T","Daniels-Strawberry",-111.26,40.3,2449.7,2494,11.6899995803833,12.1700000762939,-5.44999980926514,4.94000005722046,-1.82000005245209,2.4300000667572,814.159973144531,5.36703491579627,67.4774835823557,77.9416961669922,43.6414985656738,99999,NA,NA,99999,99999,99999,NA,NA,NA,NA,NA,NA,99999,99999,99999
"725742","USS0011J32S",1982-04-01,"WESD",332.7," "," ","T","Currant Creek",-111.09,40.36,2438.4,2470,12.0500001907349,12.6199998855591,-6.1399998664856,3.6800000667572,-4.69999980926514,1.47000002861023,604.460021972656,2.4642155426093,159.327353873063,63.2824974060059,39.5912971496582,99999,NA,NA,99999,99999,99999,NA,NA,NA,NA,NA,NA,99999,99999,99999
"765112","USS0011J46S",1982-04-01,"WESD",421.6," "," ","T","Beaver Divide",-111.1,40.61,2523.7,2515,11.3800001144409,11.9499998092651,-5.59999990463257,4.32999992370605,-2.72000002861023,2.04999995231628,750.590026855469,4.65446720078018,233.92588182993,73.0944976806641,44.7355003356934,99999,NA,NA,99999,99999,99999,NA,NA,NA,NA,NA,NA,99999,99999,99999
"781449","USS0011J52S",1982-04-01,"WESD",650.2," "," ","T","Parley's Summit",-111.63,40.76,2286,2275,12.2700004577637,11.710000038147,-3.49000000953674,6.3600001335144,0.439999997615814,2.75,875.150024414062,3.33201501347664,207.345231353265,115.447494506836,58.8490982055664,99999,NA,NA,99999,99999,99999,NA,NA,NA,NA,NA,NA,99999,99999,99999
"797786","USS0011J53S",1982-04-01,"WESD",452.1," "," ","T","Smith & Morehouse",-111.12,40.79,2316.5,2275,12.5799999237061,12.9300003051758,-5.28000020980835,4.75,-3.07999992370605,1.63999998569489,782.039978027344,5.16098004073292,185.914557319693,62.9459991455078,51.7645988464355,99999,NA,NA,99999,99999,99999,NA,NA,NA,NA,NA,NA,99999,99999,99999
"889608","USS0011K03S",1982-04-01,"WESD",731.5," "," ","T","Mammoth-Cottonwood",-111.32,39.68,2660,2680,10.8900003433228,11.1700000762939,-6.30000019073486,3.94000005722046,-3.01999998092651,2.60999989509583,701.650024414062,0.22346049037465,194.566453578573,80.0170974731445,55.8951988220215,99999,NA,NA,99999,99999,99999,NA,NA,NA,NA,NA,NA,99999,99999,99999
"909231","USS0011K09S",1982-04-01,"WESD",515.6," "," ","T","Seeley Creek",-111.43,39.31,3020.6,3033,7.82999992370605,8.8100004196167,-7.76999998092651,2.41000008583069,-3.01999998092651,2.55999994277954,671.099975585938,2.16219638601502,68.4943559080264,76.3714981079102,66.8536987304688,99999,NA,NA,99999,99999,99999,NA,NA,NA,NA,NA,NA,99999,99999,99999
"935891","USS0011K13S",1982-04-01,"WESD",375.9," "," ","T","Beaver Dams",-111.56,39.14,2435.4,2552,12.2200002670288,12.1899995803833,-6.11999988555908,5.48999977111816,-1.25,3.24000000953674,729.080017089844,7.20838991853368,184.561361646288,68.1595993041992,52.3473968505859,99999,NA,NA,99999,99999,99999,NA,NA,NA,NA,NA,NA,99999,99999,99999
"951887","USS0011K15S",1982-04-01,"WESD",535.9," "," ","T","Dill's Camp",-111.47,39.05,2798.7,2797,10.9799995422363,11.1599998474121,-6.90999984741211,4.30999994277954,-2.36999988555908,2.98000001907349,735.859985351562,5.48770061889082,101.023758896381,92.5612945556641,57.9984970092773,99999,NA,NA,99999,99999,99999,NA,NA,NA,NA,NA,NA,99999,99999,99999
"968224","USS0011K21S",1982-04-01,"WESD",650.2," "," ","T","Clear Creek #1",-111.28,39.87,2715.2,2714,10.2799997329712,10.4499998092651,-6.05000019073486,4.48000001907349,-1.32000005245209,2.8199999332428,755.989990234375,6.00667940708831,332.535020305551,80.8246994018555,58.0048980712891,99999,NA,NA,99999,99999,99999,NA,NA,NA,NA,NA,NA,99999,99999,99999
"984561","USS0011K22S",1982-04-01,"WESD",533.4," "," ","T","Clear Creek #2",-111.25,39.89,2334.5,2450,11.9700002670288,12.3800001144409,-6.03000020980835,4.88000011444092,-2.22000002861023,2.70000004768372,686.090026855469,6.59225011519032,345.201253611563,80.1501007080078,56.879997253418,99999,NA,NA,99999,99999,99999,NA,NA,NA,NA,NA,NA,99999,99999,99999
"1000836","USS0011K28S",1982-04-01,"WESD",612.1," "," ","T","Red Pine Ridge",-111.27,39.45,2745.9,2763,10.6000003814697,10.8699998855591,-6.78999996185303,3.65000009536743,-3.30999994277954,2.65000009536743,814.190002441406,4.70530032984807,114.666772157214,71.9449005126953,48.0641975402832,99999,NA,NA,99999,99999,99999,NA,NA,NA,NA,NA,NA,99999,99999,99999
"1020862","USS0011K31S",1982-04-01,"WESD",739.1," "," ","T","Buck Flat",-111.44,39.13,2874.3,2939,10,10.210000038147,-7.30000019073486,3.51999998092651,-2.97000002861023,2.76999998092651,822.409973144531,5.49631118416305,34.266771476008,103.527694702148,77.1439971923828,99999,NA,NA,99999,99999,99999,NA,NA,NA,NA,NA,NA,99999,99999,99999
"1048266","USS0011K39S",1982-04-01,"WESD",574," "," ","T","Pickle Keg",-111.58,39.01,2926.1,2703,11.5,11.3000001907349,-5.86999988555908,5.57000017166138,-0.360000014305115,3.38000011444092,807.539978027344,6.62397589322553,174.077515134122,95.8902969360352,79.5412979125977,99999,NA,NA,99999,99999,99999,NA,NA,NA,NA,NA,NA,99999,99999,99999
"1063859","USS0011K52S",1982-04-01,"WESD",726.4," "," ","T","Payson R.S.",-111.63,39.93,2458.5,2461,11.6599998474121,11.6499996185303,-5.3600001335144,5.75,-0.170000001788139,3.0699999332428,716.820007324219,3.48181324270455,72.6748988934745,74.943000793457,55.966796875,99999,NA,NA,99999,99999,99999,NA,NA,NA,NA,NA,NA,99999,99999,99999
"1079452","USS0011L01S",1982-04-01,"WESD",657.9," "," ","T","Farnsworth Lake",-111.68,38.77,2951.1,2969,9.17000007629395,9.3100004196167,-6.76999998092651,3.50999999046326,-2.16000008583069,2.54999995231628,892.219970703125,8.85488625562239,322.251589243734,125.842796325684,86.9265975952148,99999,NA,NA,99999,99999,99999,NA,NA,NA,NA,NA,NA,99999,99999,99999
"1103508","USS0011L04S",1982-04-01,"WESD",381," "," ","T","Black Flat-U.M. Ck",-111.6,38.68,2884,2858,10.9799995422363,11.2600002288818,-7.21999979019165,3.27999997138977,-4.42000007629395,1.97000002861023,554.559997558594,2.60828675243889,186.09294844237,86.8985977172852,60.7266998291016,99999,NA,NA,99999,99999,99999,NA,NA,NA,NA,NA,NA,99999,99999,99999
"1133206","USS0011L12S",1982-04-01,"WESD",414," "," ","T","Gooseberry RS",-111.68,38.8,2423.2,2434,12.8000001907349,13.0500001907349,-5.76999998092651,5.61999988555908,-1.55999994277954,2.71000003814697,689.390014648438,1.77275195764188,347.343812320006,88.4901962280273,62.8264999389648,99999,NA,NA,99999,99999,99999,NA,NA,NA,NA,NA,NA,99999,99999,99999
"1152798","USS0011M03S",1982-04-01,"WESD",421.6," "," ","T","Widtsoe #3",-111.88,37.84,2938.3,2897,11.0799999237061,11.7299995422363,-6.5,4.44000005722046,-2.20000004768372,2.17000007629395,669.75,1.84461475480484,195.200407460125,41.4939994812012,62.9314994812012,99999,NA,NA,99999,99999,99999,NA,NA,NA,NA,NA,NA,99999,99999,99999
"1180078","USS0012J06S",1982-04-01,"WESD",863.6," "," ","T","Rocky Basin-Settleme",-112.24,40.44,2712.7,2801,9.64999961853027,9.60999965667725,-5.44000005722046,4.07999992370605,-1.49000000953674,2.88000011444092,1033.88000488281,15.4601159747304,297.55999341382,122.632598876953,75.5633010864258,99999,NA,NA,99999,99999,99999,NA,NA,NA,NA,NA,NA,99999,99999,99999
"1219417","USS0012K01S",1982-04-01,"WESD",337.8," "," ","T","Vernon Creek",-112.41,39.94,2255.8,2159,13.6999998092651,14,-3.65000009536743,7.63000011444092,1.54999995231628,3.28999996185303,626.210021972656,4.63514412495836,29.4657738926665,59.108097076416,66.0580978393555,99999,NA,NA,99999,99999,99999,NA,NA,NA,NA,NA,NA,99999,99999,99999
"1239877","USS0012L04S",1982-04-01,"WESD",452.1," "," ","T","Box Creek",-112.02,38.51,2995.6,2990,10.1099996566772,10.5,-7.1100001335144,3.86999988555908,-2.38000011444092,2.58999991416931,697.380004882812,3.22107257228089,163.569034462601,72.0634994506836,53.4351005554199,99999,NA,NA,99999,99999,99999,NA,NA,NA,NA,NA,NA,99999,99999,99999
"1259934","USS0012L06S",1982-04-01,"WESD",553.7," "," ","T","Kimberly Mine",-112.39,38.48,2782.5,2810,11.2399997711182,11.3299999237061,-6.32000017166138,4.78999996185303,-1.6599999666214,2.67000007629395,890.619995117188,11.2162683453706,324.123702985773,85.5974960327148,84.5018005371094,99999,NA,NA,99999,99999,99999,NA,NA,NA,NA,NA,NA,99999,99999,99999
"1276209","USS0012L07S",1982-04-01,"WESD",683.3," "," ","T","Big Flat",-112.36,38.3,3154.4,3146,8.55000019073486,9.36999988555908,-7.86999988555908,2.51999998092651,-3.51999998092651,2.25,862.809997558594,5.98660258488345,283.107105285724,116.113395690918,112.369697570801,99999,NA,NA,99999,99999,99999,NA,NA,NA,NA,NA,NA,99999,99999,99999
"1291802","USS0012L12S",1982-04-01,"WESD",447," "," ","T","Merchant Valley",-112.44,38.3,2652.7,2652,12.4399995803833,12.9899997711182,-7.13000011444092,4.36999988555908,-3.71000003814697,2.48000001907349,741.869995117188,4.87798828052245,143.044074714254,94.8209991455078,87.8382949829102,99999,NA,NA,99999,99999,99999,NA,NA,NA,NA,NA,NA,99999,99999,99999
"1326894","USS0012M03S",1982-04-01,"WESD",561.3," "," ","T","Webster Flat",-112.9,37.58,2805.1,2743,11.0799999237061,11.0500001907349,-5.44000005722046,5.05999994277954,-0.97000002861023,2.55999994277954,780.309997558594,5.01154470198763,315.37290405088,51.6522979736328,56.7056999206543,99999,NA,NA,99999,99999,99999,NA,NA,NA,NA,NA,NA,99999,99999,99999
"1342518","USS0012M05S",1982-04-01,"WESD",264.2," "," ","T","Harris Flat",-112.58,37.49,2377.4,2380,14.0699996948242,14.8299999237061,-5.73000001907349,5.92000007629395,-2.24000000953674,2.49000000953674,529.700012207031,0.598081956082636,188.737768483677,19.2537002563477,35.0326995849609,99999,NA,NA,99999,99999,99999,NA,NA,NA,NA,NA,NA,99999,99999,99999
"1378199","USS0012M13S",1982-04-01,"WESD",472.4," "," ","T","Castle Valley",-112.74,37.66,2920,2898,10.1700000762939,10.3000001907349,-6.09999990463257,3.4300000667572,-3.3199999332428,2.05999994277954,667.140014648438,2.02499271320834,93.6726618639357,44.8334007263184,58.3622970581055,99999,NA,NA,99999,99999,99999,NA,NA,NA,NA,NA,NA,99999,99999,99999
"1401108","USS0012M23S",1982-04-01,"WESD",795," "," ","T","Midway Valley",-112.84,37.57,2987,3036,8.77999973297119,9.38000011444092,-6.82999992370605,2.86999988555908,-3.03999996185303,1.61000001430511,905.690002441406,0.53521997388831,225.54025203458,49.4127006530762,55.4953994750977,99999,NA,NA,99999,99999,99999,NA,NA,NA,NA,NA,NA,99999,99999,99999
"1431550","USS0013M02S",1982-04-01,"WESD",210.8," "," ","T","Long Flat",-113.4,37.51,2438.4,2457,13.2200002670288,12.9700002670288,-4.76000022888184,6.8899998664856,0.560000002384186,2.67000007629395,595.5,2.90604772788548,78.8524870379549,34.6950988769531,75.9520950317383,99999,NA,NA,99999,99999,99999,NA,NA,NA,NA,NA,NA,99999,99999,99999
"1461527","USS0013M05S",1982-04-01,"WESD",723.9," "," ","T","Kolob",-113.05,37.53,2806,2796,10.6599998474121,11.0200004577637,-6.73000001907349,4.73999977111816,-1.17999994754791,2.35999989509583,857.109985351562,3.5935300689077,95.5187032977784,59.4457969665527,71.7574005126953,99999,NA,NA,99999,99999,99999,NA,NA,NA,NA,NA,NA,99999,99999,99999
"73006","USS0009J01S",1983-04-01,"WESD",477.5," "," ","T","King's Cabin",-109.54,40.72,2659.1,2747,9.92000007629395,10.1000003814697,-6.69000005722046,2.34999990463257,-5.23000001907349,1.16999995708466,671.659973144531,4.78612435679289,87.9330736332216,27.7395992279053,98.5160980224609,99999,NA,NA,99999,99999,99999,NA,NA,NA,NA,NA,NA,99999,99999,99999
"89343","USS0009J05S",1983-04-01,"WESD",546.1," "," ","T","Mosby Mtn.",-109.89,40.61,2898.6,2940,9,9.51000022888184,-7.94000005722046,1.80999994277954,-5.3899998664856,1.72000002861023,741.030029296875,1.89678728327232,118.85039185745,22.4615993499756,81.2182006835938,99999,NA,NA,99999,99999,99999,NA,NA,NA,NA,NA,NA,99999,99999,99999
"119413","USS0009J16S",1983-04-01,"WESD",477.5," "," ","T","Trout Creek",-109.67,40.74,2901.1,2854,9.28999996185303,9.56999969482422,-7.01999998092651,1.82000005245209,-5.65999984741211,1.17999994754791,697.659973144531,1.48509419801237,267.774829830569,24.4925994873047,90.3390960693359,99999,NA,NA,99999,99999,99999,NA,NA,NA,NA,NA,NA,99999,99999,99999
"151746","USS0009L03S",1983-04-01,"WESD",609.6," "," ","T","Lasal Mountain",-109.27,38.48,2913.9,2849,11.539999961853,10.9399995803833,-6.28000020980835,5.32999992370605,-0.879999995231628,2.69000005722046,834.97998046875,7.48796762321208,301.127208872154,51.4824981689453,92.2237014770508,99999,NA,NA,99999,99999,99999,NA,NA,NA,NA,NA,NA,99999,99999,99999
"217869","USS0010J10S",1983-04-01,"WESD",406.4," "," ","T","Lakefork #1",-110.43,40.6,3174.5,3138,8.06999969482422,8.9399995803833,-8.5600004196167,0.430000007152557,-7.21000003814697,1.53999996185303,678.039978027344,1.0087942885972,244.612222176501,50.0083999633789,66.1479949951172,99999,NA,NA,99999,99999,99999,NA,NA,NA,NA,NA,NA,99999,99999,99999
"242700","USS0010J18S",1983-04-01,"WESD",317.5," "," ","T","Rock Creek",-110.69,40.55,2404.6,2404,11.6800003051758,11.9700002670288,-5.67999982833862,4.17000007629395,-3.34999990463257,1.89999997615814,609.840026855469,1.17958444335404,230.540740031152,53.225700378418,48.5750999450684,99999,NA,NA,99999,99999,99999,NA,NA,NA,NA,NA,NA,99999,99999,99999
"259037","USS0010J20S",1983-04-01,"WESD",472.4," "," ","T","Steel Creek Park",-110.5,40.91,3109,3086,8.26000022888184,8.94999980926514,-7.3899998664856,1.04999995231628,-6.17000007629395,0.949999988079071,762.510009765625,3.6784973319539,32.0648626684663,86.8357009887695,85.4633941650391,99999,NA,NA,99999,99999,99999,NA,NA,NA,NA,NA,NA,99999,99999,99999
"296950","USS0010J26S",1983-04-01,"WESD",401.3," "," ","T","Five Points Lake",-110.47,40.72,3334.5,3378,7.01999998092651,7.59999990463257,-7.3899998664856,-0.0199999995529652,-7.05999994277954,1.04999995231628,899.590026855469,5.76543064390204,140.480202163667,78.8807983398438,68.4054946899414,99999,NA,NA,99999,99999,99999,NA,NA,NA,NA,NA,NA,99999,99999,99999
"313287","USS0010J30S",1983-04-01,"WESD",591.8," "," ","T","Brown Duck",-110.59,40.58,3230.9,3176,8.05000019073486,8.86999988555908,-8.47999954223633,0.899999976158142,-6.26000022888184,1.60000002384186,887,1.74620744356898,90.9459424829086,75.3267974853516,79.9032974243164,99999,NA,NA,99999,99999,99999,NA,NA,NA,NA,NA,NA,99999,99999,99999
"328539","USS0010J35S",1983-04-01,"WESD",228.6," "," ","T","Lily Lake",-110.8,40.86,2790.7,2776,10.0600004196167,11.0600004196167,-6.98999977111816,2.22000002861023,-5.63000011444092,1,740.25,3.5403808747547,6.02004792518575,71.9704971313477,65.0101013183594,99999,NA,NA,99999,99999,99999,NA,NA,NA,NA,NA,NA,99999,99999,99999
"344132","USS0010J43S",1983-04-01,"WESD",426.7," "," ","T","Chepeta",-110.01,40.77,3228.4,3188,7.23000001907349,7.8899998664856,-7.38000011444092,0.219999998807907,-6.78999996185303,1.27999997138977,799.5,3.63135708957878,208.798117965602,41.9619979858398,83.6820983886719,99999,NA,NA,99999,99999,99999,NA,NA,NA,NA,NA,NA,99999,99999,99999
"360469","USS0010J44S",1983-04-01,"WESD",472.4," "," ","T","Hayden Fork",-110.88,40.8,2807.8,2815,9.85999965667725,10.7700004577637,-7.23000001907349,1.94000005722046,-5.98000001907349,0.949999988079071,872.460021972656,4.49553122934345,89.7249163672731,102.256896972656,80.1116943359375,99999,NA,NA,99999,99999,99999,NA,NA,NA,NA,NA,NA,99999,99999,99999
"376806","USS0010J52S",1983-04-01,"WESD",701," "," ","T","Trial Lake",-110.95,40.68,3045.6,2985,8.59000015258789,9.34000015258789,-6.84999990463257,1.75999999046326,-5.07999992370605,1.37999999523163,1015.75,1.3284499441869,183.281094004999,120.689498901367,75.6825942993164,99999,NA,NA,99999,99999,99999,NA,NA,NA,NA,NA,NA,99999,99999,99999
"397576","USS0010K01S",1983-04-01,"WESD",439.4," "," ","T","Indian Canyon",-110.75,39.89,2796.5,2716,11.1400003433228,11.3400001525879,-6,4.69000005722046,-1.75999999046326,3,637.429992675781,4.33716023420457,303.421979517047,50.1571998596191,64.0961990356445,99999,NA,NA,99999,99999,99999,NA,NA,NA,NA,NA,NA,99999,99999,99999
"454647","USS0011H08S",1983-04-01,"WESD",1374.1," "," ","T","Ben Lomond Peak",-111.94,41.38,2438.4,2050,12.5200004577637,12.3500003814697,-3.75,6.3600001335144,0.189999997615814,2.79999995231628,1422.57995605469,11.1265212121201,70.5683803513235,131.720397949219,35.2219009399414,99999,NA,NA,99999,99999,99999,NA,NA,NA,NA,NA,NA,99999,99999,99999
"470984","USS0011H21S",1983-04-01,"WESD",629.9," "," ","T","Horse Ridge",-111.45,41.31,2487.2,2485,10.3500003814697,9.98999977111816,-4.07999992370605,4.78000020980835,-0.800000011920929,2.46000003814697,932.130004882812,0.435409999082621,160.692614821965,109.118896484375,31.978199005127,99999,NA,NA,99999,99999,99999,NA,NA,NA,NA,NA,NA,99999,99999,99999
"487321","USS0011H25S",1983-04-01,"WESD",459.7," "," ","T","Little Bear",-111.83,41.41,1994.6,1987,12.7200002670288,12.960000038147,-4.15000009536743,6.28999996185303,-0.140000000596046,2.77999997138977,905.559997558594,7.07004097484233,322.309229886841,93.6112976074219,33.2021980285645,99999,NA,NA,99999,99999,99999,NA,NA,NA,NA,NA,NA,99999,99999,99999
"502914","USS0011H30S",1983-04-01,"WESD",668," "," ","T","Ben Lomond Trail",-111.92,41.38,1776.7,1791,13.8000001907349,14.3500003814697,-4.07000017166138,6.96000003814697,0.119999997317791,2.96000003814697,1071.18005371094,4.04709191447104,93.7728085489376,131.720397949219,35.2219009399414,99999,NA,NA,99999,99999,99999,NA,NA,NA,NA,NA,NA,99999,99999,99999
"528303","USS0011H36S",1983-04-01,"WESD",947.4," "," ","T","Tony Grove Lake",-111.63,41.9,2582.9,2586,9.05000019073486,8.6899995803833,-4.26999998092651,3.75999999046326,-1.52999997138977,2.04999995231628,1208.91003417969,3.30430891537223,186.388134160072,187.05729675293,38.336498260498,99999,NA,NA,99999,99999,99999,NA,NA,NA,NA,NA,NA,99999,99999,99999
"544640","USS0011H37S",1983-04-01,"WESD",439.4," "," ","T","Bug Lake",-111.42,41.68,2423.2,2507,10.0100002288818,10.3100004196167,-4.92000007629395,4.01000022888184,-1.99000000953674,2.16000008583069,772.22998046875,1.74798830921864,209.062748480968,106.781997680664,32.6759986877441,99999,NA,NA,99999,99999,99999,NA,NA,NA,NA,NA,NA,99999,99999,99999
"560977","USS0011H55S",1983-04-01,"WESD",642.6," "," ","T","Dry Bread Pond",-111.54,41.41,2545.1,2515,9.89000034332275,9.67000007629395,-4.34999990463257,4.32000017166138,-1.25999999046326,2.32999992370605,788.739990234375,2.78678558411374,247.987252610088,107.969497680664,42.6879005432129,99999,NA,NA,99999,99999,99999,NA,NA,NA,NA,NA,NA,99999,99999,99999
"577314","USS0011H57S",1983-04-01,"WESD",708.7," "," ","T","Monte Cristo",-111.5,41.47,2731,2697,8.65999984741211,8.75,-5.15999984741211,3.15000009536743,-2.35999989509583,1.98000001907349,998.820007324219,1.25634628366293,304.212471539667,141.50569152832,48.8178977966309,99999,NA,NA,99999,99999,99999,NA,NA,NA,NA,NA,NA,99999,99999,99999
"613708","USS0011J01S",1983-04-01,"WESD",718.8," "," ","T","Chalk Creek #1",-111.05,40.85,2741.1,2887,8.73999977111816,9.30000019073486,-6.40000009536743,2.72000002861023,-3.30999994277954,1.78999996185303,1056.92004394531,2.82926220198967,91.6048646992103,104.362098693848,92.0610961914062,99999,NA,NA,99999,99999,99999,NA,NA,NA,NA,NA,NA,99999,99999,99999
"630045","USS0011J02S",1983-04-01,"WESD",434.3," "," ","T","Chalk Creek #2",-111.07,40.89,2486.6,2454,11.2700004577637,11.6300001144409,-5.25,4.61999988555908,-2.03999996185303,2.11999988555908,734.25,5.67295699457566,319.575750428287,65.3061981201172,54.2271003723145,99999,NA,NA,99999,99999,99999,NA,NA,NA,NA,NA,NA,99999,99999,99999
"650071","USS0011J08S",1983-04-01,"WESD",617.2," "," ","T","Strawberry Divide",-111.21,40.16,2475.9,2495,11.8400001525879,12.1899995803833,-5.09000015258789,4.92000007629395,-2.00999999046326,2.32999992370605,730.950012207031,5.74489855501885,103.968250946965,72.3123016357422,37.7078971862793,99999,NA,NA,99999,99999,99999,NA,NA,NA,NA,NA,NA,99999,99999,99999
"666408","USS0011J11S",1983-04-01,"WESD",1104.9," "," ","T","Farmington",-111.82,40.99,2438.4,2150,11.7600002288818,11.1000003814697,-3.73000001907349,5.57000017166138,-0.620000004768372,2.38000011444092,1131.77001953125,0.736637377466184,251.158862176166,156.68359375,71.0698013305664,99999,NA,NA,99999,99999,99999,NA,NA,NA,NA,NA,NA,99999,99999,99999
"689720","USS0011J21S",1983-04-01,"WESD",675.6," "," ","T","Timpanogos Divide",-111.62,40.43,2481.1,2547,10.3999996185303,9.78999996185303,-4.30000019073486,5.34000015258789,0.280000001192093,3.03999996185303,1015.34997558594,9.92744006770794,24.6721777132582,80.8000946044922,84.3266983032227,99999,NA,NA,99999,99999,99999,NA,NA,NA,NA,NA,NA,99999,99999,99999
"709777","USS0011J23S",1983-04-01,"WESD",660.4," "," ","T","Daniels-Strawberry",-111.26,40.3,2449.7,2494,11.6899995803833,12.1700000762939,-5.44999980926514,4.94000005722046,-1.82000005245209,2.4300000667572,814.159973144531,5.36703491579627,67.4774835823557,77.9416961669922,43.6414985656738,99999,NA,NA,99999,99999,99999,NA,NA,NA,NA,NA,NA,99999,99999,99999
"726114","USS0011J32S",1983-04-01,"WESD",439.4," "," ","T","Currant Creek",-111.09,40.36,2438.4,2470,12.0500001907349,12.6199998855591,-6.1399998664856,3.6800000667572,-4.69999980926514,1.47000002861023,604.460021972656,2.4642155426093,159.327353873063,63.2824974060059,39.5912971496582,99999,NA,NA,99999,99999,99999,NA,NA,NA,NA,NA,NA,99999,99999,99999
"765484","USS0011J46S",1983-04-01,"WESD",393.7," "," ","T","Beaver Divide",-111.1,40.61,2523.7,2515,11.3800001144409,11.9499998092651,-5.59999990463257,4.32999992370605,-2.72000002861023,2.04999995231628,750.590026855469,4.65446720078018,233.92588182993,73.0944976806641,44.7355003356934,99999,NA,NA,99999,99999,99999,NA,NA,NA,NA,NA,NA,99999,99999,99999
"781821","USS0011J52S",1983-04-01,"WESD",612.1," "," ","T","Parley's Summit",-111.63,40.76,2286,2275,12.2700004577637,11.710000038147,-3.49000000953674,6.3600001335144,0.439999997615814,2.75,875.150024414062,3.33201501347664,207.345231353265,115.447494506836,58.8490982055664,99999,NA,NA,99999,99999,99999,NA,NA,NA,NA,NA,NA,99999,99999,99999
"798158","USS0011J53S",1983-04-01,"WESD",434.3," "," ","T","Smith & Morehouse",-111.12,40.79,2316.5,2275,12.5799999237061,12.9300003051758,-5.28000020980835,4.75,-3.07999992370605,1.63999998569489,782.039978027344,5.16098004073292,185.914557319693,62.9459991455078,51.7645988464355,99999,NA,NA,99999,99999,99999,NA,NA,NA,NA,NA,NA,99999,99999,99999
"889980","USS0011K03S",1983-04-01,"WESD",779.8," "," ","T","Mammoth-Cottonwood",-111.32,39.68,2660,2680,10.8900003433228,11.1700000762939,-6.30000019073486,3.94000005722046,-3.01999998092651,2.60999989509583,701.650024414062,0.22346049037465,194.566453578573,80.0170974731445,55.8951988220215,99999,NA,NA,99999,99999,99999,NA,NA,NA,NA,NA,NA,99999,99999,99999
"909603","USS0011K09S",1983-04-01,"WESD",652.8," "," ","T","Seeley Creek",-111.43,39.31,3020.6,3033,7.82999992370605,8.8100004196167,-7.76999998092651,2.41000008583069,-3.01999998092651,2.55999994277954,671.099975585938,2.16219638601502,68.4943559080264,76.3714981079102,66.8536987304688,99999,NA,NA,99999,99999,99999,NA,NA,NA,NA,NA,NA,99999,99999,99999
"936263","USS0011K13S",1983-04-01,"WESD",561.3," "," ","T","Beaver Dams",-111.56,39.14,2435.4,2552,12.2200002670288,12.1899995803833,-6.11999988555908,5.48999977111816,-1.25,3.24000000953674,729.080017089844,7.20838991853368,184.561361646288,68.1595993041992,52.3473968505859,99999,NA,NA,99999,99999,99999,NA,NA,NA,NA,NA,NA,99999,99999,99999
"952259","USS0011K15S",1983-04-01,"WESD",579.1," "," ","T","Dill's Camp",-111.47,39.05,2798.7,2797,10.9799995422363,11.1599998474121,-6.90999984741211,4.30999994277954,-2.36999988555908,2.98000001907349,735.859985351562,5.48770061889082,101.023758896381,92.5612945556641,57.9984970092773,99999,NA,NA,99999,99999,99999,NA,NA,NA,NA,NA,NA,99999,99999,99999
"968596","USS0011K21S",1983-04-01,"WESD",629.9," "," ","T","Clear Creek #1",-111.28,39.87,2715.2,2714,10.2799997329712,10.4499998092651,-6.05000019073486,4.48000001907349,-1.32000005245209,2.8199999332428,755.989990234375,6.00667940708831,332.535020305551,80.8246994018555,58.0048980712891,99999,NA,NA,99999,99999,99999,NA,NA,NA,NA,NA,NA,99999,99999,99999
"984933","USS0011K22S",1983-04-01,"WESD",477.5," "," ","T","Clear Creek #2",-111.25,39.89,2334.5,2450,11.9700002670288,12.3800001144409,-6.03000020980835,4.88000011444092,-2.22000002861023,2.70000004768372,686.090026855469,6.59225011519032,345.201253611563,80.1501007080078,56.879997253418,99999,NA,NA,99999,99999,99999,NA,NA,NA,NA,NA,NA,99999,99999,99999
"1001208","USS0011K28S",1983-04-01,"WESD",693.4," "," ","T","Red Pine Ridge",-111.27,39.45,2745.9,2763,10.6000003814697,10.8699998855591,-6.78999996185303,3.65000009536743,-3.30999994277954,2.65000009536743,814.190002441406,4.70530032984807,114.666772157214,71.9449005126953,48.0641975402832,99999,NA,NA,99999,99999,99999,NA,NA,NA,NA,NA,NA,99999,99999,99999
"1021234","USS0011K31S",1983-04-01,"WESD",721.4," "," ","T","Buck Flat",-111.44,39.13,2874.3,2939,10,10.210000038147,-7.30000019073486,3.51999998092651,-2.97000002861023,2.76999998092651,822.409973144531,5.49631118416305,34.266771476008,103.527694702148,77.1439971923828,99999,NA,NA,99999,99999,99999,NA,NA,NA,NA,NA,NA,99999,99999,99999
"1048638","USS0011K39S",1983-04-01,"WESD",716.3," "," ","T","Pickle Keg",-111.58,39.01,2926.1,2703,11.5,11.3000001907349,-5.86999988555908,5.57000017166138,-0.360000014305115,3.38000011444092,807.539978027344,6.62397589322553,174.077515134122,95.8902969360352,79.5412979125977,99999,NA,NA,99999,99999,99999,NA,NA,NA,NA,NA,NA,99999,99999,99999
"1064231","USS0011K52S",1983-04-01,"WESD",845.8," "," ","T","Payson R.S.",-111.63,39.93,2458.5,2461,11.6599998474121,11.6499996185303,-5.3600001335144,5.75,-0.170000001788139,3.0699999332428,716.820007324219,3.48181324270455,72.6748988934745,74.943000793457,55.966796875,99999,NA,NA,99999,99999,99999,NA,NA,NA,NA,NA,NA,99999,99999,99999
"1079824","USS0011L01S",1983-04-01,"WESD",612.1," "," ","T","Farnsworth Lake",-111.68,38.77,2951.1,2969,9.17000007629395,9.3100004196167,-6.76999998092651,3.50999999046326,-2.16000008583069,2.54999995231628,892.219970703125,8.85488625562239,322.251589243734,125.842796325684,86.9265975952148,99999,NA,NA,99999,99999,99999,NA,NA,NA,NA,NA,NA,99999,99999,99999
"1103880","USS0011L04S",1983-04-01,"WESD",360.7," "," ","T","Black Flat-U.M. Ck",-111.6,38.68,2884,2858,10.9799995422363,11.2600002288818,-7.21999979019165,3.27999997138977,-4.42000007629395,1.97000002861023,554.559997558594,2.60828675243889,186.09294844237,86.8985977172852,60.7266998291016,99999,NA,NA,99999,99999,99999,NA,NA,NA,NA,NA,NA,99999,99999,99999
"1133578","USS0011L12S",1983-04-01,"WESD",406.4," "," ","T","Gooseberry RS",-111.68,38.8,2423.2,2434,12.8000001907349,13.0500001907349,-5.76999998092651,5.61999988555908,-1.55999994277954,2.71000003814697,689.390014648438,1.77275195764188,347.343812320006,88.4901962280273,62.8264999389648,99999,NA,NA,99999,99999,99999,NA,NA,NA,NA,NA,NA,99999,99999,99999
"1153170","USS0011M03S",1983-04-01,"WESD",485.1," "," ","T","Widtsoe #3",-111.88,37.84,2938.3,2897,11.0799999237061,11.7299995422363,-6.5,4.44000005722046,-2.20000004768372,2.17000007629395,669.75,1.84461475480484,195.200407460125,41.4939994812012,62.9314994812012,99999,NA,NA,99999,99999,99999,NA,NA,NA,NA,NA,NA,99999,99999,99999
"1180450","USS0012J06S",1983-04-01,"WESD",1130.3," "," ","T","Rocky Basin-Settleme",-112.24,40.44,2712.7,2801,9.64999961853027,9.60999965667725,-5.44000005722046,4.07999992370605,-1.49000000953674,2.88000011444092,1033.88000488281,15.4601159747304,297.55999341382,122.632598876953,75.5633010864258,99999,NA,NA,99999,99999,99999,NA,NA,NA,NA,NA,NA,99999,99999,99999
"1219789","USS0012K01S",1983-04-01,"WESD",609.6," "," ","T","Vernon Creek",-112.41,39.94,2255.8,2159,13.6999998092651,14,-3.65000009536743,7.63000011444092,1.54999995231628,3.28999996185303,626.210021972656,4.63514412495836,29.4657738926665,59.108097076416,66.0580978393555,99999,NA,NA,99999,99999,99999,NA,NA,NA,NA,NA,NA,99999,99999,99999
"1240249","USS0012L04S",1983-04-01,"WESD",546.1," "," ","T","Box Creek",-112.02,38.51,2995.6,2990,10.1099996566772,10.5,-7.1100001335144,3.86999988555908,-2.38000011444092,2.58999991416931,697.380004882812,3.22107257228089,163.569034462601,72.0634994506836,53.4351005554199,99999,NA,NA,99999,99999,99999,NA,NA,NA,NA,NA,NA,99999,99999,99999
"1260306","USS0012L06S",1983-04-01,"WESD",553.7," "," ","T","Kimberly Mine",-112.39,38.48,2782.5,2810,11.2399997711182,11.3299999237061,-6.32000017166138,4.78999996185303,-1.6599999666214,2.67000007629395,890.619995117188,11.2162683453706,324.123702985773,85.5974960327148,84.5018005371094,99999,NA,NA,99999,99999,99999,NA,NA,NA,NA,NA,NA,99999,99999,99999
"1276581","USS0012L07S",1983-04-01,"WESD",688.3," "," ","T","Big Flat",-112.36,38.3,3154.4,3146,8.55000019073486,9.36999988555908,-7.86999988555908,2.51999998092651,-3.51999998092651,2.25,862.809997558594,5.98660258488345,283.107105285724,116.113395690918,112.369697570801,99999,NA,NA,99999,99999,99999,NA,NA,NA,NA,NA,NA,99999,99999,99999
"1292174","USS0012L12S",1983-04-01,"WESD",574," "," ","T","Merchant Valley",-112.44,38.3,2652.7,2652,12.4399995803833,12.9899997711182,-7.13000011444092,4.36999988555908,-3.71000003814697,2.48000001907349,741.869995117188,4.87798828052245,143.044074714254,94.8209991455078,87.8382949829102,99999,NA,NA,99999,99999,99999,NA,NA,NA,NA,NA,NA,99999,99999,99999
"1327266","USS0012M03S",1983-04-01,"WESD",823," "," ","T","Webster Flat",-112.9,37.58,2805.1,2743,11.0799999237061,11.0500001907349,-5.44000005722046,5.05999994277954,-0.97000002861023,2.55999994277954,780.309997558594,5.01154470198763,315.37290405088,51.6522979736328,56.7056999206543,99999,NA,NA,99999,99999,99999,NA,NA,NA,NA,NA,NA,99999,99999,99999
"1342890","USS0012M05S",1983-04-01,"WESD",447," "," ","T","Harris Flat",-112.58,37.49,2377.4,2380,14.0699996948242,14.8299999237061,-5.73000001907349,5.92000007629395,-2.24000000953674,2.49000000953674,529.700012207031,0.598081956082636,188.737768483677,19.2537002563477,35.0326995849609,99999,NA,NA,99999,99999,99999,NA,NA,NA,NA,NA,NA,99999,99999,99999
"1378571","USS0012M13S",1983-04-01,"WESD",685.8," "," ","T","Castle Valley",-112.74,37.66,2920,2898,10.1700000762939,10.3000001907349,-6.09999990463257,3.4300000667572,-3.3199999332428,2.05999994277954,667.140014648438,2.02499271320834,93.6726618639357,44.8334007263184,58.3622970581055,99999,NA,NA,99999,99999,99999,NA,NA,NA,NA,NA,NA,99999,99999,99999
"1401480","USS0012M23S",1983-04-01,"WESD",1155.7," "," ","T","Midway Valley",-112.84,37.57,2987,3036,8.77999973297119,9.38000011444092,-6.82999992370605,2.86999988555908,-3.03999996185303,1.61000001430511,905.690002441406,0.53521997388831,225.54025203458,49.4127006530762,55.4953994750977,99999,NA,NA,99999,99999,99999,NA,NA,NA,NA,NA,NA,99999,99999,99999
"1431922","USS0013M02S",1983-04-01,"WESD",571.5," "," ","T","Long Flat",-113.4,37.51,2438.4,2457,13.2200002670288,12.9700002670288,-4.76000022888184,6.8899998664856,0.560000002384186,2.67000007629395,595.5,2.90604772788548,78.8524870379549,34.6950988769531,75.9520950317383,99999,NA,NA,99999,99999,99999,NA,NA,NA,NA,NA,NA,99999,99999,99999
"1461899","USS0013M05S",1983-04-01,"WESD",1082," "," ","T","Kolob",-113.05,37.53,2806,2796,10.6599998474121,11.0200004577637,-6.73000001907349,4.73999977111816,-1.17999994754791,2.35999989509583,857.109985351562,3.5935300689077,95.5187032977784,59.4457969665527,71.7574005126953,99999,NA,NA,99999,99999,99999,NA,NA,NA,NA,NA,NA,99999,99999,99999
"73378","USS0009J01S",1984-04-01,"WESD",388.6," "," ","T","King's Cabin",-109.54,40.72,2659.1,2747,9.92000007629395,10.1000003814697,-6.69000005722046,2.34999990463257,-5.23000001907349,1.16999995708466,671.659973144531,4.78612435679289,87.9330736332216,27.7395992279053,98.5160980224609,99999,NA,NA,99999,99999,99999,NA,NA,NA,NA,NA,NA,99999,99999,99999
"89715","USS0009J05S",1984-04-01,"WESD",330.2," "," ","T","Mosby Mtn.",-109.89,40.61,2898.6,2940,9,9.51000022888184,-7.94000005722046,1.80999994277954,-5.3899998664856,1.72000002861023,741.030029296875,1.89678728327232,118.85039185745,22.4615993499756,81.2182006835938,99999,NA,NA,99999,99999,99999,NA,NA,NA,NA,NA,NA,99999,99999,99999
"119785","USS0009J16S",1984-04-01,"WESD",297.2," "," ","T","Trout Creek",-109.67,40.74,2901.1,2854,9.28999996185303,9.56999969482422,-7.01999998092651,1.82000005245209,-5.65999984741211,1.17999994754791,697.659973144531,1.48509419801237,267.774829830569,24.4925994873047,90.3390960693359,99999,NA,NA,99999,99999,99999,NA,NA,NA,NA,NA,NA,99999,99999,99999
"152118","USS0009L03S",1984-04-01,"WESD",541," "," ","T","Lasal Mountain",-109.27,38.48,2913.9,2849,11.539999961853,10.9399995803833,-6.28000020980835,5.32999992370605,-0.879999995231628,2.69000005722046,834.97998046875,7.48796762321208,301.127208872154,51.4824981689453,92.2237014770508,99999,NA,NA,99999,99999,99999,NA,NA,NA,NA,NA,NA,99999,99999,99999
"218241","USS0010J10S",1984-04-01,"WESD",251.5," "," ","T","Lakefork #1",-110.43,40.6,3174.5,3138,8.06999969482422,8.9399995803833,-8.5600004196167,0.430000007152557,-7.21000003814697,1.53999996185303,678.039978027344,1.0087942885972,244.612222176501,50.0083999633789,66.1479949951172,99999,NA,NA,99999,99999,99999,NA,NA,NA,NA,NA,NA,99999,99999,99999
"243072","USS0010J18S",1984-04-01,"WESD",233.7," "," ","T","Rock Creek",-110.69,40.55,2404.6,2404,11.6800003051758,11.9700002670288,-5.67999982833862,4.17000007629395,-3.34999990463257,1.89999997615814,609.840026855469,1.17958444335404,230.540740031152,53.225700378418,48.5750999450684,99999,NA,NA,99999,99999,99999,NA,NA,NA,NA,NA,NA,99999,99999,99999
"259409","USS0010J20S",1984-04-01,"WESD",452.1," "," ","T","Steel Creek Park",-110.5,40.91,3109,3086,8.26000022888184,8.94999980926514,-7.3899998664856,1.04999995231628,-6.17000007629395,0.949999988079071,762.510009765625,3.6784973319539,32.0648626684663,86.8357009887695,85.4633941650391,99999,NA,NA,99999,99999,99999,NA,NA,NA,NA,NA,NA,99999,99999,99999
"297322","USS0010J26S",1984-04-01,"WESD",406.4," "," ","T","Five Points Lake",-110.47,40.72,3334.5,3378,7.01999998092651,7.59999990463257,-7.3899998664856,-0.0199999995529652,-7.05999994277954,1.04999995231628,899.590026855469,5.76543064390204,140.480202163667,78.8807983398438,68.4054946899414,99999,NA,NA,99999,99999,99999,NA,NA,NA,NA,NA,NA,99999,99999,99999
"313659","USS0010J30S",1984-04-01,"WESD",485.1," "," ","T","Brown Duck",-110.59,40.58,3230.9,3176,8.05000019073486,8.86999988555908,-8.47999954223633,0.899999976158142,-6.26000022888184,1.60000002384186,887,1.74620744356898,90.9459424829086,75.3267974853516,79.9032974243164,99999,NA,NA,99999,99999,99999,NA,NA,NA,NA,NA,NA,99999,99999,99999
"328911","USS0010J35S",1984-04-01,"WESD",444.5," "," ","T","Lily Lake",-110.8,40.86,2790.7,2776,10.0600004196167,11.0600004196167,-6.98999977111816,2.22000002861023,-5.63000011444092,1,740.25,3.5403808747547,6.02004792518575,71.9704971313477,65.0101013183594,99999,NA,NA,99999,99999,99999,NA,NA,NA,NA,NA,NA,99999,99999,99999
"344504","USS0010J43S",1984-04-01,"WESD",355.6," "," ","T","Chepeta",-110.01,40.77,3228.4,3188,7.23000001907349,7.8899998664856,-7.38000011444092,0.219999998807907,-6.78999996185303,1.27999997138977,799.5,3.63135708957878,208.798117965602,41.9619979858398,83.6820983886719,99999,NA,NA,99999,99999,99999,NA,NA,NA,NA,NA,NA,99999,99999,99999
"360841","USS0010J44S",1984-04-01,"WESD",520.7," "," ","T","Hayden Fork",-110.88,40.8,2807.8,2815,9.85999965667725,10.7700004577637,-7.23000001907349,1.94000005722046,-5.98000001907349,0.949999988079071,872.460021972656,4.49553122934345,89.7249163672731,102.256896972656,80.1116943359375,99999,NA,NA,99999,99999,99999,NA,NA,NA,NA,NA,NA,99999,99999,99999
"377178","USS0010J52S",1984-04-01,"WESD",823," "," ","T","Trial Lake",-110.95,40.68,3045.6,2985,8.59000015258789,9.34000015258789,-6.84999990463257,1.75999999046326,-5.07999992370605,1.37999999523163,1015.75,1.3284499441869,183.281094004999,120.689498901367,75.6825942993164,99999,NA,NA,99999,99999,99999,NA,NA,NA,NA,NA,NA,99999,99999,99999
"397948","USS0010K01S",1984-04-01,"WESD",304.8," "," ","T","Indian Canyon",-110.75,39.89,2796.5,2716,11.1400003433228,11.3400001525879,-6,4.69000005722046,-1.75999999046326,3,637.429992675781,4.33716023420457,303.421979517047,50.1571998596191,64.0961990356445,99999,NA,NA,99999,99999,99999,NA,NA,NA,NA,NA,NA,99999,99999,99999
"414223","USS0010K02S",1984-04-01,"WESD",510.5," "," ","T","White River #1",-110.99,39.96,2633.8,2643,10.8199996948242,11.039999961853,-5.71000003814697,4.17000007629395,-2.48000001907349,2.38000011444092,594.22998046875,5.27568472332334,256.525474316617,55.4116973876953,48.4776000976562,99999,NA,NA,99999,99999,99999,NA,NA,NA,NA,NA,NA,99999,99999,99999
"455019","USS0011H08S",1984-04-01,"WESD",1745," "," ","T","Ben Lomond Peak",-111.94,41.38,2438.4,2050,12.5200004577637,12.3500003814697,-3.75,6.3600001335144,0.189999997615814,2.79999995231628,1422.57995605469,11.1265212121201,70.5683803513235,131.720397949219,35.2219009399414,99999,NA,NA,99999,99999,99999,NA,NA,NA,NA,NA,NA,99999,99999,99999
"471356","USS0011H21S",1984-04-01,"WESD",947.4," "," ","T","Horse Ridge",-111.45,41.31,2487.2,2485,10.3500003814697,9.98999977111816,-4.07999992370605,4.78000020980835,-0.800000011920929,2.46000003814697,932.130004882812,0.435409999082621,160.692614821965,109.118896484375,31.978199005127,99999,NA,NA,99999,99999,99999,NA,NA,NA,NA,NA,NA,99999,99999,99999
"487693","USS0011H25S",1984-04-01,"WESD",637.5," "," ","T","Little Bear",-111.83,41.41,1994.6,1987,12.7200002670288,12.960000038147,-4.15000009536743,6.28999996185303,-0.140000000596046,2.77999997138977,905.559997558594,7.07004097484233,322.309229886841,93.6112976074219,33.2021980285645,99999,NA,NA,99999,99999,99999,NA,NA,NA,NA,NA,NA,99999,99999,99999
"503286","USS0011H30S",1984-04-01,"WESD",866.1," "," ","T","Ben Lomond Trail",-111.92,41.38,1776.7,1791,13.8000001907349,14.3500003814697,-4.07000017166138,6.96000003814697,0.119999997317791,2.96000003814697,1071.18005371094,4.04709191447104,93.7728085489376,131.720397949219,35.2219009399414,99999,NA,NA,99999,99999,99999,NA,NA,NA,NA,NA,NA,99999,99999,99999
"528675","USS0011H36S",1984-04-01,"WESD",1201.4," "," ","T","Tony Grove Lake",-111.63,41.9,2582.9,2586,9.05000019073486,8.6899995803833,-4.26999998092651,3.75999999046326,-1.52999997138977,2.04999995231628,1208.91003417969,3.30430891537223,186.388134160072,187.05729675293,38.336498260498,99999,NA,NA,99999,99999,99999,NA,NA,NA,NA,NA,NA,99999,99999,99999
"545012","USS0011H37S",1984-04-01,"WESD",698.5," "," ","T","Bug Lake",-111.42,41.68,2423.2,2507,10.0100002288818,10.3100004196167,-4.92000007629395,4.01000022888184,-1.99000000953674,2.16000008583069,772.22998046875,1.74798830921864,209.062748480968,106.781997680664,32.6759986877441,99999,NA,NA,99999,99999,99999,NA,NA,NA,NA,NA,NA,99999,99999,99999
"561349","USS0011H55S",1984-04-01,"WESD",703.6," "," ","T","Dry Bread Pond",-111.54,41.41,2545.1,2515,9.89000034332275,9.67000007629395,-4.34999990463257,4.32000017166138,-1.25999999046326,2.32999992370605,788.739990234375,2.78678558411374,247.987252610088,107.969497680664,42.6879005432129,99999,NA,NA,99999,99999,99999,NA,NA,NA,NA,NA,NA,99999,99999,99999
"577686","USS0011H57S",1984-04-01,"WESD",957.6," "," ","T","Monte Cristo",-111.5,41.47,2731,2697,8.65999984741211,8.75,-5.15999984741211,3.15000009536743,-2.35999989509583,1.98000001907349,998.820007324219,1.25634628366293,304.212471539667,141.50569152832,48.8178977966309,99999,NA,NA,99999,99999,99999,NA,NA,NA,NA,NA,NA,99999,99999,99999
"614080","USS0011J01S",1984-04-01,"WESD",655.3," "," ","T","Chalk Creek #1",-111.05,40.85,2741.1,2887,8.73999977111816,9.30000019073486,-6.40000009536743,2.72000002861023,-3.30999994277954,1.78999996185303,1056.92004394531,2.82926220198967,91.6048646992103,104.362098693848,92.0610961914062,99999,NA,NA,99999,99999,99999,NA,NA,NA,NA,NA,NA,99999,99999,99999
"630417","USS0011J02S",1984-04-01,"WESD",426.7," "," ","T","Chalk Creek #2",-111.07,40.89,2486.6,2454,11.2700004577637,11.6300001144409,-5.25,4.61999988555908,-2.03999996185303,2.11999988555908,734.25,5.67295699457566,319.575750428287,65.3061981201172,54.2271003723145,99999,NA,NA,99999,99999,99999,NA,NA,NA,NA,NA,NA,99999,99999,99999
"650443","USS0011J08S",1984-04-01,"WESD",767.1," "," ","T","Strawberry Divide",-111.21,40.16,2475.9,2495,11.8400001525879,12.1899995803833,-5.09000015258789,4.92000007629395,-2.00999999046326,2.32999992370605,730.950012207031,5.74489855501885,103.968250946965,72.3123016357422,37.7078971862793,99999,NA,NA,99999,99999,99999,NA,NA,NA,NA,NA,NA,99999,99999,99999
"666780","USS0011J11S",1984-04-01,"WESD",985.5," "," ","T","Farmington",-111.82,40.99,2438.4,2150,11.7600002288818,11.1000003814697,-3.73000001907349,5.57000017166138,-0.620000004768372,2.38000011444092,1131.77001953125,0.736637377466184,251.158862176166,156.68359375,71.0698013305664,99999,NA,NA,99999,99999,99999,NA,NA,NA,NA,NA,NA,99999,99999,99999
"690092","USS0011J21S",1984-04-01,"WESD",701," "," ","T","Timpanogos Divide",-111.62,40.43,2481.1,2547,10.3999996185303,9.78999996185303,-4.30000019073486,5.34000015258789,0.280000001192093,3.03999996185303,1015.34997558594,9.92744006770794,24.6721777132582,80.8000946044922,84.3266983032227,99999,NA,NA,99999,99999,99999,NA,NA,NA,NA,NA,NA,99999,99999,99999
"710149","USS0011J23S",1984-04-01,"WESD",591.8," "," ","T","Daniels-Strawberry",-111.26,40.3,2449.7,2494,11.6899995803833,12.1700000762939,-5.44999980926514,4.94000005722046,-1.82000005245209,2.4300000667572,814.159973144531,5.36703491579627,67.4774835823557,77.9416961669922,43.6414985656738,99999,NA,NA,99999,99999,99999,NA,NA,NA,NA,NA,NA,99999,99999,99999
"726486","USS0011J32S",1984-04-01,"WESD",452.1," "," ","T","Currant Creek",-111.09,40.36,2438.4,2470,12.0500001907349,12.6199998855591,-6.1399998664856,3.6800000667572,-4.69999980926514,1.47000002861023,604.460021972656,2.4642155426093,159.327353873063,63.2824974060059,39.5912971496582,99999,NA,NA,99999,99999,99999,NA,NA,NA,NA,NA,NA,99999,99999,99999
"765856","USS0011J46S",1984-04-01,"WESD",322.6," "," ","T","Beaver Divide",-111.1,40.61,2523.7,2515,11.3800001144409,11.9499998092651,-5.59999990463257,4.32999992370605,-2.72000002861023,2.04999995231628,750.590026855469,4.65446720078018,233.92588182993,73.0944976806641,44.7355003356934,99999,NA,NA,99999,99999,99999,NA,NA,NA,NA,NA,NA,99999,99999,99999
"782193","USS0011J52S",1984-04-01,"WESD",792.5," "," ","T","Parley's Summit",-111.63,40.76,2286,2275,12.2700004577637,11.710000038147,-3.49000000953674,6.3600001335144,0.439999997615814,2.75,875.150024414062,3.33201501347664,207.345231353265,115.447494506836,58.8490982055664,99999,NA,NA,99999,99999,99999,NA,NA,NA,NA,NA,NA,99999,99999,99999
"798530","USS0011J53S",1984-04-01,"WESD",485.1," "," ","T","Smith & Morehouse",-111.12,40.79,2316.5,2275,12.5799999237061,12.9300003051758,-5.28000020980835,4.75,-3.07999992370605,1.63999998569489,782.039978027344,5.16098004073292,185.914557319693,62.9459991455078,51.7645988464355,99999,NA,NA,99999,99999,99999,NA,NA,NA,NA,NA,NA,99999,99999,99999
"890352","USS0011K03S",1984-04-01,"WESD",797.6," "," ","T","Mammoth-Cottonwood",-111.32,39.68,2660,2680,10.8900003433228,11.1700000762939,-6.30000019073486,3.94000005722046,-3.01999998092651,2.60999989509583,701.650024414062,0.22346049037465,194.566453578573,80.0170974731445,55.8951988220215,99999,NA,NA,99999,99999,99999,NA,NA,NA,NA,NA,NA,99999,99999,99999
"909975","USS0011K09S",1984-04-01,"WESD",655.3," "," ","T","Seeley Creek",-111.43,39.31,3020.6,3033,7.82999992370605,8.8100004196167,-7.76999998092651,2.41000008583069,-3.01999998092651,2.55999994277954,671.099975585938,2.16219638601502,68.4943559080264,76.3714981079102,66.8536987304688,99999,NA,NA,99999,99999,99999,NA,NA,NA,NA,NA,NA,99999,99999,99999
"936635","USS0011K13S",1984-04-01,"WESD",584.2," "," ","T","Beaver Dams",-111.56,39.14,2435.4,2552,12.2200002670288,12.1899995803833,-6.11999988555908,5.48999977111816,-1.25,3.24000000953674,729.080017089844,7.20838991853368,184.561361646288,68.1595993041992,52.3473968505859,99999,NA,NA,99999,99999,99999,NA,NA,NA,NA,NA,NA,99999,99999,99999
"952631","USS0011K15S",1984-04-01,"WESD",675.6," "," ","T","Dill's Camp",-111.47,39.05,2798.7,2797,10.9799995422363,11.1599998474121,-6.90999984741211,4.30999994277954,-2.36999988555908,2.98000001907349,735.859985351562,5.48770061889082,101.023758896381,92.5612945556641,57.9984970092773,99999,NA,NA,99999,99999,99999,NA,NA,NA,NA,NA,NA,99999,99999,99999
"968968","USS0011K21S",1984-04-01,"WESD",637.5," "," ","T","Clear Creek #1",-111.28,39.87,2715.2,2714,10.2799997329712,10.4499998092651,-6.05000019073486,4.48000001907349,-1.32000005245209,2.8199999332428,755.989990234375,6.00667940708831,332.535020305551,80.8246994018555,58.0048980712891,99999,NA,NA,99999,99999,99999,NA,NA,NA,NA,NA,NA,99999,99999,99999
"985305","USS0011K22S",1984-04-01,"WESD",515.6," "," ","T","Clear Creek #2",-111.25,39.89,2334.5,2450,11.9700002670288,12.3800001144409,-6.03000020980835,4.88000011444092,-2.22000002861023,2.70000004768372,686.090026855469,6.59225011519032,345.201253611563,80.1501007080078,56.879997253418,99999,NA,NA,99999,99999,99999,NA,NA,NA,NA,NA,NA,99999,99999,99999
"1001580","USS0011K28S",1984-04-01,"WESD",723.9," "," ","T","Red Pine Ridge",-111.27,39.45,2745.9,2763,10.6000003814697,10.8699998855591,-6.78999996185303,3.65000009536743,-3.30999994277954,2.65000009536743,814.190002441406,4.70530032984807,114.666772157214,71.9449005126953,48.0641975402832,99999,NA,NA,99999,99999,99999,NA,NA,NA,NA,NA,NA,99999,99999,99999
"1021606","USS0011K31S",1984-04-01,"WESD",777.2," "," ","T","Buck Flat",-111.44,39.13,2874.3,2939,10,10.210000038147,-7.30000019073486,3.51999998092651,-2.97000002861023,2.76999998092651,822.409973144531,5.49631118416305,34.266771476008,103.527694702148,77.1439971923828,99999,NA,NA,99999,99999,99999,NA,NA,NA,NA,NA,NA,99999,99999,99999
"1049010","USS0011K39S",1984-04-01,"WESD",929.6," "," ","T","Pickle Keg",-111.58,39.01,2926.1,2703,11.5,11.3000001907349,-5.86999988555908,5.57000017166138,-0.360000014305115,3.38000011444092,807.539978027344,6.62397589322553,174.077515134122,95.8902969360352,79.5412979125977,99999,NA,NA,99999,99999,99999,NA,NA,NA,NA,NA,NA,99999,99999,99999
"1064603","USS0011K52S",1984-04-01,"WESD",1003.3," "," ","T","Payson R.S.",-111.63,39.93,2458.5,2461,11.6599998474121,11.6499996185303,-5.3600001335144,5.75,-0.170000001788139,3.0699999332428,716.820007324219,3.48181324270455,72.6748988934745,74.943000793457,55.966796875,99999,NA,NA,99999,99999,99999,NA,NA,NA,NA,NA,NA,99999,99999,99999
"1080196","USS0011L01S",1984-04-01,"WESD",772.2," "," ","T","Farnsworth Lake",-111.68,38.77,2951.1,2969,9.17000007629395,9.3100004196167,-6.76999998092651,3.50999999046326,-2.16000008583069,2.54999995231628,892.219970703125,8.85488625562239,322.251589243734,125.842796325684,86.9265975952148,99999,NA,NA,99999,99999,99999,NA,NA,NA,NA,NA,NA,99999,99999,99999
"1104252","USS0011L04S",1984-04-01,"WESD",472.4," "," ","T","Black Flat-U.M. Ck",-111.6,38.68,2884,2858,10.9799995422363,11.2600002288818,-7.21999979019165,3.27999997138977,-4.42000007629395,1.97000002861023,554.559997558594,2.60828675243889,186.09294844237,86.8985977172852,60.7266998291016,99999,NA,NA,99999,99999,99999,NA,NA,NA,NA,NA,NA,99999,99999,99999
"1133950","USS0011L12S",1984-04-01,"WESD",612.1," "," ","T","Gooseberry RS",-111.68,38.8,2423.2,2434,12.8000001907349,13.0500001907349,-5.76999998092651,5.61999988555908,-1.55999994277954,2.71000003814697,689.390014648438,1.77275195764188,347.343812320006,88.4901962280273,62.8264999389648,99999,NA,NA,99999,99999,99999,NA,NA,NA,NA,NA,NA,99999,99999,99999
"1153542","USS0011M03S",1984-04-01,"WESD",309.9," "," ","T","Widtsoe #3",-111.88,37.84,2938.3,2897,11.0799999237061,11.7299995422363,-6.5,4.44000005722046,-2.20000004768372,2.17000007629395,669.75,1.84461475480484,195.200407460125,41.4939994812012,62.9314994812012,99999,NA,NA,99999,99999,99999,NA,NA,NA,NA,NA,NA,99999,99999,99999
"1180822","USS0012J06S",1984-04-01,"WESD",1280.2," "," ","T","Rocky Basin-Settleme",-112.24,40.44,2712.7,2801,9.64999961853027,9.60999965667725,-5.44000005722046,4.07999992370605,-1.49000000953674,2.88000011444092,1033.88000488281,15.4601159747304,297.55999341382,122.632598876953,75.5633010864258,99999,NA,NA,99999,99999,99999,NA,NA,NA,NA,NA,NA,99999,99999,99999
"1220161","USS0012K01S",1984-04-01,"WESD",548.6," "," ","T","Vernon Creek",-112.41,39.94,2255.8,2159,13.6999998092651,14,-3.65000009536743,7.63000011444092,1.54999995231628,3.28999996185303,626.210021972656,4.63514412495836,29.4657738926665,59.108097076416,66.0580978393555,99999,NA,NA,99999,99999,99999,NA,NA,NA,NA,NA,NA,99999,99999,99999
"1240621","USS0012L04S",1984-04-01,"WESD",553.7," "," ","T","Box Creek",-112.02,38.51,2995.6,2990,10.1099996566772,10.5,-7.1100001335144,3.86999988555908,-2.38000011444092,2.58999991416931,697.380004882812,3.22107257228089,163.569034462601,72.0634994506836,53.4351005554199,99999,NA,NA,99999,99999,99999,NA,NA,NA,NA,NA,NA,99999,99999,99999
"1260678","USS0012L06S",1984-04-01,"WESD",749.3," "," ","T","Kimberly Mine",-112.39,38.48,2782.5,2810,11.2399997711182,11.3299999237061,-6.32000017166138,4.78999996185303,-1.6599999666214,2.67000007629395,890.619995117188,11.2162683453706,324.123702985773,85.5974960327148,84.5018005371094,99999,NA,NA,99999,99999,99999,NA,NA,NA,NA,NA,NA,99999,99999,99999
"1276953","USS0012L07S",1984-04-01,"WESD",670.6," "," ","T","Big Flat",-112.36,38.3,3154.4,3146,8.55000019073486,9.36999988555908,-7.86999988555908,2.51999998092651,-3.51999998092651,2.25,862.809997558594,5.98660258488345,283.107105285724,116.113395690918,112.369697570801,99999,NA,NA,99999,99999,99999,NA,NA,NA,NA,NA,NA,99999,99999,99999
"1292546","USS0012L12S",1984-04-01,"WESD",472.4," "," ","T","Merchant Valley",-112.44,38.3,2652.7,2652,12.4399995803833,12.9899997711182,-7.13000011444092,4.36999988555908,-3.71000003814697,2.48000001907349,741.869995117188,4.87798828052245,143.044074714254,94.8209991455078,87.8382949829102,99999,NA,NA,99999,99999,99999,NA,NA,NA,NA,NA,NA,99999,99999,99999
"1327638","USS0012M03S",1984-04-01,"WESD",238.8," "," ","T","Webster Flat",-112.9,37.58,2805.1,2743,11.0799999237061,11.0500001907349,-5.44000005722046,5.05999994277954,-0.97000002861023,2.55999994277954,780.309997558594,5.01154470198763,315.37290405088,51.6522979736328,56.7056999206543,99999,NA,NA,99999,99999,99999,NA,NA,NA,NA,NA,NA,99999,99999,99999
"1343262","USS0012M05S",1984-04-01,"WESD",2.5," "," ","T","Harris Flat",-112.58,37.49,2377.4,2380,14.0699996948242,14.8299999237061,-5.73000001907349,5.92000007629395,-2.24000000953674,2.49000000953674,529.700012207031,0.598081956082636,188.737768483677,19.2537002563477,35.0326995849609,99999,NA,NA,99999,99999,99999,NA,NA,NA,NA,NA,NA,99999,99999,99999
"1378943","USS0012M13S",1984-04-01,"WESD",548.6," "," ","T","Castle Valley",-112.74,37.66,2920,2898,10.1700000762939,10.3000001907349,-6.09999990463257,3.4300000667572,-3.3199999332428,2.05999994277954,667.140014648438,2.02499271320834,93.6726618639357,44.8334007263184,58.3622970581055,99999,NA,NA,99999,99999,99999,NA,NA,NA,NA,NA,NA,99999,99999,99999
"1401852","USS0012M23S",1984-04-01,"WESD",510.5," "," ","T","Midway Valley",-112.84,37.57,2987,3036,8.77999973297119,9.38000011444092,-6.82999992370605,2.86999988555908,-3.03999996185303,1.61000001430511,905.690002441406,0.53521997388831,225.54025203458,49.4127006530762,55.4953994750977,99999,NA,NA,99999,99999,99999,NA,NA,NA,NA,NA,NA,99999,99999,99999
"1432294","USS0013M02S",1984-04-01,"WESD",109.2," "," ","T","Long Flat",-113.4,37.51,2438.4,2457,13.2200002670288,12.9700002670288,-4.76000022888184,6.8899998664856,0.560000002384186,2.67000007629395,595.5,2.90604772788548,78.8524870379549,34.6950988769531,75.9520950317383,99999,NA,NA,99999,99999,99999,NA,NA,NA,NA,NA,NA,99999,99999,99999
"1462271","USS0013M05S",1984-04-01,"WESD",477.5," "," ","T","Kolob",-113.05,37.53,2806,2796,10.6599998474121,11.0200004577637,-6.73000001907349,4.73999977111816,-1.17999994754791,2.35999989509583,857.109985351562,3.5935300689077,95.5187032977784,59.4457969665527,71.7574005126953,99999,NA,NA,99999,99999,99999,NA,NA,NA,NA,NA,NA,99999,99999,99999
"70743","USC00425654",1985-04-01,"WESD",17.8," "," ","X","MILFORD",-113.0161,38.4017,1526.7,1527,19.0200004577637,19.9400005340576,-2.09999990463257,10.2700004577637,1.50999999046326,2.4300000667572,263.559997558594,0.880591523904241,111.615767340664,24.1619987487793,56.048397064209,99999,NA,NA,99999,99999,99999,NA,NA,NA,NA,NA,NA,99999,99999,99999
"73750","USS0009J01S",1985-04-01,"WESD",327.7," "," ","T","King's Cabin",-109.54,40.72,2659.1,2747,9.92000007629395,10.1000003814697,-6.69000005722046,2.34999990463257,-5.23000001907349,1.16999995708466,671.659973144531,4.78612435679289,87.9330736332216,27.7395992279053,98.5160980224609,99999,NA,NA,99999,99999,99999,NA,NA,NA,NA,NA,NA,99999,99999,99999
"90087","USS0009J05S",1985-04-01,"WESD",289.6," "," ","T","Mosby Mtn.",-109.89,40.61,2898.6,2940,9,9.51000022888184,-7.94000005722046,1.80999994277954,-5.3899998664856,1.72000002861023,741.030029296875,1.89678728327232,118.85039185745,22.4615993499756,81.2182006835938,99999,NA,NA,99999,99999,99999,NA,NA,NA,NA,NA,NA,99999,99999,99999
"120157","USS0009J16S",1985-04-01,"WESD",309.9," "," ","T","Trout Creek",-109.67,40.74,2901.1,2854,9.28999996185303,9.56999969482422,-7.01999998092651,1.82000005245209,-5.65999984741211,1.17999994754791,697.659973144531,1.48509419801237,267.774829830569,24.4925994873047,90.3390960693359,99999,NA,NA,99999,99999,99999,NA,NA,NA,NA,NA,NA,99999,99999,99999
"152490","USS0009L03S",1985-04-01,"WESD",292.1," "," ","T","Lasal Mountain",-109.27,38.48,2913.9,2849,11.539999961853,10.9399995803833,-6.28000020980835,5.32999992370605,-0.879999995231628,2.69000005722046,834.97998046875,7.48796762321208,301.127208872154,51.4824981689453,92.2237014770508,99999,NA,NA,99999,99999,99999,NA,NA,NA,NA,NA,NA,99999,99999,99999
"218613","USS0010J10S",1985-04-01,"WESD",315," "," ","T","Lakefork #1",-110.43,40.6,3174.5,3138,8.06999969482422,8.9399995803833,-8.5600004196167,0.430000007152557,-7.21000003814697,1.53999996185303,678.039978027344,1.0087942885972,244.612222176501,50.0083999633789,66.1479949951172,99999,NA,NA,99999,99999,99999,NA,NA,NA,NA,NA,NA,99999,99999,99999
"243444","USS0010J18S",1985-04-01,"WESD",309.9," "," ","T","Rock Creek",-110.69,40.55,2404.6,2404,11.6800003051758,11.9700002670288,-5.67999982833862,4.17000007629395,-3.34999990463257,1.89999997615814,609.840026855469,1.17958444335404,230.540740031152,53.225700378418,48.5750999450684,99999,NA,NA,99999,99999,99999,NA,NA,NA,NA,NA,NA,99999,99999,99999
"259781","USS0010J20S",1985-04-01,"WESD",398.8," "," ","T","Steel Creek Park",-110.5,40.91,3109,3086,8.26000022888184,8.94999980926514,-7.3899998664856,1.04999995231628,-6.17000007629395,0.949999988079071,762.510009765625,3.6784973319539,32.0648626684663,86.8357009887695,85.4633941650391,99999,NA,NA,99999,99999,99999,NA,NA,NA,NA,NA,NA,99999,99999,99999
"297694","USS0010J26S",1985-04-01,"WESD",444.5," "," ","T","Five Points Lake",-110.47,40.72,3334.5,3378,7.01999998092651,7.59999990463257,-7.3899998664856,-0.0199999995529652,-7.05999994277954,1.04999995231628,899.590026855469,5.76543064390204,140.480202163667,78.8807983398438,68.4054946899414,99999,NA,NA,99999,99999,99999,NA,NA,NA,NA,NA,NA,99999,99999,99999
"314031","USS0010J30S",1985-04-01,"WESD",508," "," ","T","Brown Duck",-110.59,40.58,3230.9,3176,8.05000019073486,8.86999988555908,-8.47999954223633,0.899999976158142,-6.26000022888184,1.60000002384186,887,1.74620744356898,90.9459424829086,75.3267974853516,79.9032974243164,99999,NA,NA,99999,99999,99999,NA,NA,NA,NA,NA,NA,99999,99999,99999
"329283","USS0010J35S",1985-04-01,"WESD",388.6," "," ","T","Lily Lake",-110.8,40.86,2790.7,2776,10.0600004196167,11.0600004196167,-6.98999977111816,2.22000002861023,-5.63000011444092,1,740.25,3.5403808747547,6.02004792518575,71.9704971313477,65.0101013183594,99999,NA,NA,99999,99999,99999,NA,NA,NA,NA,NA,NA,99999,99999,99999
"344876","USS0010J43S",1985-04-01,"WESD",388.6," "," ","T","Chepeta",-110.01,40.77,3228.4,3188,7.23000001907349,7.8899998664856,-7.38000011444092,0.219999998807907,-6.78999996185303,1.27999997138977,799.5,3.63135708957878,208.798117965602,41.9619979858398,83.6820983886719,99999,NA,NA,99999,99999,99999,NA,NA,NA,NA,NA,NA,99999,99999,99999
"361213","USS0010J44S",1985-04-01,"WESD",497.8," "," ","T","Hayden Fork",-110.88,40.8,2807.8,2815,9.85999965667725,10.7700004577637,-7.23000001907349,1.94000005722046,-5.98000001907349,0.949999988079071,872.460021972656,4.49553122934345,89.7249163672731,102.256896972656,80.1116943359375,99999,NA,NA,99999,99999,99999,NA,NA,NA,NA,NA,NA,99999,99999,99999
"377550","USS0010J52S",1985-04-01,"WESD",693.4," "," ","T","Trial Lake",-110.95,40.68,3045.6,2985,8.59000015258789,9.34000015258789,-6.84999990463257,1.75999999046326,-5.07999992370605,1.37999999523163,1015.75,1.3284499441869,183.281094004999,120.689498901367,75.6825942993164,99999,NA,NA,99999,99999,99999,NA,NA,NA,NA,NA,NA,99999,99999,99999
"398320","USS0010K01S",1985-04-01,"WESD",315," "," ","T","Indian Canyon",-110.75,39.89,2796.5,2716,11.1400003433228,11.3400001525879,-6,4.69000005722046,-1.75999999046326,3,637.429992675781,4.33716023420457,303.421979517047,50.1571998596191,64.0961990356445,99999,NA,NA,99999,99999,99999,NA,NA,NA,NA,NA,NA,99999,99999,99999
"414595","USS0010K02S",1985-04-01,"WESD",383.5," "," ","T","White River #1",-110.99,39.96,2633.8,2643,10.8199996948242,11.039999961853,-5.71000003814697,4.17000007629395,-2.48000001907349,2.38000011444092,594.22998046875,5.27568472332334,256.525474316617,55.4116973876953,48.4776000976562,99999,NA,NA,99999,99999,99999,NA,NA,NA,NA,NA,NA,99999,99999,99999
"455391","USS0011H08S",1985-04-01,"WESD",1036.3," "," ","T","Ben Lomond Peak",-111.94,41.38,2438.4,2050,12.5200004577637,12.3500003814697,-3.75,6.3600001335144,0.189999997615814,2.79999995231628,1422.57995605469,11.1265212121201,70.5683803513235,131.720397949219,35.2219009399414,99999,NA,NA,99999,99999,99999,NA,NA,NA,NA,NA,NA,99999,99999,99999
"471728","USS0011H21S",1985-04-01,"WESD",772.2," "," ","T","Horse Ridge",-111.45,41.31,2487.2,2485,10.3500003814697,9.98999977111816,-4.07999992370605,4.78000020980835,-0.800000011920929,2.46000003814697,932.130004882812,0.435409999082621,160.692614821965,109.118896484375,31.978199005127,99999,NA,NA,99999,99999,99999,NA,NA,NA,NA,NA,NA,99999,99999,99999
"488065","USS0011H25S",1985-04-01,"WESD",477.5," "," ","T","Little Bear",-111.83,41.41,1994.6,1987,12.7200002670288,12.960000038147,-4.15000009536743,6.28999996185303,-0.140000000596046,2.77999997138977,905.559997558594,7.07004097484233,322.309229886841,93.6112976074219,33.2021980285645,99999,NA,NA,99999,99999,99999,NA,NA,NA,NA,NA,NA,99999,99999,99999
"503658","USS0011H30S",1985-04-01,"WESD",764.5," "," ","T","Ben Lomond Trail",-111.92,41.38,1776.7,1791,13.8000001907349,14.3500003814697,-4.07000017166138,6.96000003814697,0.119999997317791,2.96000003814697,1071.18005371094,4.04709191447104,93.7728085489376,131.720397949219,35.2219009399414,99999,NA,NA,99999,99999,99999,NA,NA,NA,NA,NA,NA,99999,99999,99999
"529047","USS0011H36S",1985-04-01,"WESD",983," "," ","T","Tony Grove Lake",-111.63,41.9,2582.9,2586,9.05000019073486,8.6899995803833,-4.26999998092651,3.75999999046326,-1.52999997138977,2.04999995231628,1208.91003417969,3.30430891537223,186.388134160072,187.05729675293,38.336498260498,99999,NA,NA,99999,99999,99999,NA,NA,NA,NA,NA,NA,99999,99999,99999
"545384","USS0011H37S",1985-04-01,"WESD",584.2," "," ","T","Bug Lake",-111.42,41.68,2423.2,2507,10.0100002288818,10.3100004196167,-4.92000007629395,4.01000022888184,-1.99000000953674,2.16000008583069,772.22998046875,1.74798830921864,209.062748480968,106.781997680664,32.6759986877441,99999,NA,NA,99999,99999,99999,NA,NA,NA,NA,NA,NA,99999,99999,99999
"561721","USS0011H55S",1985-04-01,"WESD",772.2," "," ","T","Dry Bread Pond",-111.54,41.41,2545.1,2515,9.89000034332275,9.67000007629395,-4.34999990463257,4.32000017166138,-1.25999999046326,2.32999992370605,788.739990234375,2.78678558411374,247.987252610088,107.969497680664,42.6879005432129,99999,NA,NA,99999,99999,99999,NA,NA,NA,NA,NA,NA,99999,99999,99999
"578058","USS0011H57S",1985-04-01,"WESD",906.8," "," ","T","Monte Cristo",-111.5,41.47,2731,2697,8.65999984741211,8.75,-5.15999984741211,3.15000009536743,-2.35999989509583,1.98000001907349,998.820007324219,1.25634628366293,304.212471539667,141.50569152832,48.8178977966309,99999,NA,NA,99999,99999,99999,NA,NA,NA,NA,NA,NA,99999,99999,99999
"614452","USS0011J01S",1985-04-01,"WESD",701," "," ","T","Chalk Creek #1",-111.05,40.85,2741.1,2887,8.73999977111816,9.30000019073486,-6.40000009536743,2.72000002861023,-3.30999994277954,1.78999996185303,1056.92004394531,2.82926220198967,91.6048646992103,104.362098693848,92.0610961914062,99999,NA,NA,99999,99999,99999,NA,NA,NA,NA,NA,NA,99999,99999,99999
"630789","USS0011J02S",1985-04-01,"WESD",434.3," "," ","T","Chalk Creek #2",-111.07,40.89,2486.6,2454,11.2700004577637,11.6300001144409,-5.25,4.61999988555908,-2.03999996185303,2.11999988555908,734.25,5.67295699457566,319.575750428287,65.3061981201172,54.2271003723145,99999,NA,NA,99999,99999,99999,NA,NA,NA,NA,NA,NA,99999,99999,99999
"650815","USS0011J08S",1985-04-01,"WESD",515.6," "," ","T","Strawberry Divide",-111.21,40.16,2475.9,2495,11.8400001525879,12.1899995803833,-5.09000015258789,4.92000007629395,-2.00999999046326,2.32999992370605,730.950012207031,5.74489855501885,103.968250946965,72.3123016357422,37.7078971862793,99999,NA,NA,99999,99999,99999,NA,NA,NA,NA,NA,NA,99999,99999,99999
"667152","USS0011J11S",1985-04-01,"WESD",871.2," "," ","T","Farmington",-111.82,40.99,2438.4,2150,11.7600002288818,11.1000003814697,-3.73000001907349,5.57000017166138,-0.620000004768372,2.38000011444092,1131.77001953125,0.736637377466184,251.158862176166,156.68359375,71.0698013305664,99999,NA,NA,99999,99999,99999,NA,NA,NA,NA,NA,NA,99999,99999,99999
"690464","USS0011J21S",1985-04-01,"WESD",642.6," "," ","T","Timpanogos Divide",-111.62,40.43,2481.1,2547,10.3999996185303,9.78999996185303,-4.30000019073486,5.34000015258789,0.280000001192093,3.03999996185303,1015.34997558594,9.92744006770794,24.6721777132582,80.8000946044922,84.3266983032227,99999,NA,NA,99999,99999,99999,NA,NA,NA,NA,NA,NA,99999,99999,99999
"710521","USS0011J23S",1985-04-01,"WESD",528.3," "," ","T","Daniels-Strawberry",-111.26,40.3,2449.7,2494,11.6899995803833,12.1700000762939,-5.44999980926514,4.94000005722046,-1.82000005245209,2.4300000667572,814.159973144531,5.36703491579627,67.4774835823557,77.9416961669922,43.6414985656738,99999,NA,NA,99999,99999,99999,NA,NA,NA,NA,NA,NA,99999,99999,99999
"726858","USS0011J32S",1985-04-01,"WESD",439.4," "," ","T","Currant Creek",-111.09,40.36,2438.4,2470,12.0500001907349,12.6199998855591,-6.1399998664856,3.6800000667572,-4.69999980926514,1.47000002861023,604.460021972656,2.4642155426093,159.327353873063,63.2824974060059,39.5912971496582,99999,NA,NA,99999,99999,99999,NA,NA,NA,NA,NA,NA,99999,99999,99999
"766228","USS0011J46S",1985-04-01,"WESD",269.2," "," ","T","Beaver Divide",-111.1,40.61,2523.7,2515,11.3800001144409,11.9499998092651,-5.59999990463257,4.32999992370605,-2.72000002861023,2.04999995231628,750.590026855469,4.65446720078018,233.92588182993,73.0944976806641,44.7355003356934,99999,NA,NA,99999,99999,99999,NA,NA,NA,NA,NA,NA,99999,99999,99999
"782565","USS0011J52S",1985-04-01,"WESD",533.4," "," ","T","Parley's Summit",-111.63,40.76,2286,2275,12.2700004577637,11.710000038147,-3.49000000953674,6.3600001335144,0.439999997615814,2.75,875.150024414062,3.33201501347664,207.345231353265,115.447494506836,58.8490982055664,99999,NA,NA,99999,99999,99999,NA,NA,NA,NA,NA,NA,99999,99999,99999
"798902","USS0011J53S",1985-04-01,"WESD",490.2," "," ","T","Smith & Morehouse",-111.12,40.79,2316.5,2275,12.5799999237061,12.9300003051758,-5.28000020980835,4.75,-3.07999992370605,1.63999998569489,782.039978027344,5.16098004073292,185.914557319693,62.9459991455078,51.7645988464355,99999,NA,NA,99999,99999,99999,NA,NA,NA,NA,NA,NA,99999,99999,99999
"890724","USS0011K03S",1985-04-01,"WESD",617.2," "," ","T","Mammoth-Cottonwood",-111.32,39.68,2660,2680,10.8900003433228,11.1700000762939,-6.30000019073486,3.94000005722046,-3.01999998092651,2.60999989509583,701.650024414062,0.22346049037465,194.566453578573,80.0170974731445,55.8951988220215,99999,NA,NA,99999,99999,99999,NA,NA,NA,NA,NA,NA,99999,99999,99999
"910347","USS0011K09S",1985-04-01,"WESD",444.5," "," ","T","Seeley Creek",-111.43,39.31,3020.6,3033,7.82999992370605,8.8100004196167,-7.76999998092651,2.41000008583069,-3.01999998092651,2.55999994277954,671.099975585938,2.16219638601502,68.4943559080264,76.3714981079102,66.8536987304688,99999,NA,NA,99999,99999,99999,NA,NA,NA,NA,NA,NA,99999,99999,99999
"937007","USS0011K13S",1985-04-01,"WESD",251.5," "," ","T","Beaver Dams",-111.56,39.14,2435.4,2552,12.2200002670288,12.1899995803833,-6.11999988555908,5.48999977111816,-1.25,3.24000000953674,729.080017089844,7.20838991853368,184.561361646288,68.1595993041992,52.3473968505859,99999,NA,NA,99999,99999,99999,NA,NA,NA,NA,NA,NA,99999,99999,99999
"953003","USS0011K15S",1985-04-01,"WESD",396.2," "," ","T","Dill's Camp",-111.47,39.05,2798.7,2797,10.9799995422363,11.1599998474121,-6.90999984741211,4.30999994277954,-2.36999988555908,2.98000001907349,735.859985351562,5.48770061889082,101.023758896381,92.5612945556641,57.9984970092773,99999,NA,NA,99999,99999,99999,NA,NA,NA,NA,NA,NA,99999,99999,99999
"969340","USS0011K21S",1985-04-01,"WESD",604.5," "," ","T","Clear Creek #1",-111.28,39.87,2715.2,2714,10.2799997329712,10.4499998092651,-6.05000019073486,4.48000001907349,-1.32000005245209,2.8199999332428,755.989990234375,6.00667940708831,332.535020305551,80.8246994018555,58.0048980712891,99999,NA,NA,99999,99999,99999,NA,NA,NA,NA,NA,NA,99999,99999,99999
"985677","USS0011K22S",1985-04-01,"WESD",457.2," "," ","T","Clear Creek #2",-111.25,39.89,2334.5,2450,11.9700002670288,12.3800001144409,-6.03000020980835,4.88000011444092,-2.22000002861023,2.70000004768372,686.090026855469,6.59225011519032,345.201253611563,80.1501007080078,56.879997253418,99999,NA,NA,99999,99999,99999,NA,NA,NA,NA,NA,NA,99999,99999,99999
"1001952","USS0011K28S",1985-04-01,"WESD",533.4," "," ","T","Red Pine Ridge",-111.27,39.45,2745.9,2763,10.6000003814697,10.8699998855591,-6.78999996185303,3.65000009536743,-3.30999994277954,2.65000009536743,814.190002441406,4.70530032984807,114.666772157214,71.9449005126953,48.0641975402832,99999,NA,NA,99999,99999,99999,NA,NA,NA,NA,NA,NA,99999,99999,99999
"1021978","USS0011K31S",1985-04-01,"WESD",502.9," "," ","T","Buck Flat",-111.44,39.13,2874.3,2939,10,10.210000038147,-7.30000019073486,3.51999998092651,-2.97000002861023,2.76999998092651,822.409973144531,5.49631118416305,34.266771476008,103.527694702148,77.1439971923828,99999,NA,NA,99999,99999,99999,NA,NA,NA,NA,NA,NA,99999,99999,99999
"1049382","USS0011K39S",1985-04-01,"WESD",457.2," "," ","T","Pickle Keg",-111.58,39.01,2926.1,2703,11.5,11.3000001907349,-5.86999988555908,5.57000017166138,-0.360000014305115,3.38000011444092,807.539978027344,6.62397589322553,174.077515134122,95.8902969360352,79.5412979125977,99999,NA,NA,99999,99999,99999,NA,NA,NA,NA,NA,NA,99999,99999,99999
"1064975","USS0011K52S",1985-04-01,"WESD",541," "," ","T","Payson R.S.",-111.63,39.93,2458.5,2461,11.6599998474121,11.6499996185303,-5.3600001335144,5.75,-0.170000001788139,3.0699999332428,716.820007324219,3.48181324270455,72.6748988934745,74.943000793457,55.966796875,99999,NA,NA,99999,99999,99999,NA,NA,NA,NA,NA,NA,99999,99999,99999
"1080568","USS0011L01S",1985-04-01,"WESD",477.5," "," ","T","Farnsworth Lake",-111.68,38.77,2951.1,2969,9.17000007629395,9.3100004196167,-6.76999998092651,3.50999999046326,-2.16000008583069,2.54999995231628,892.219970703125,8.85488625562239,322.251589243734,125.842796325684,86.9265975952148,99999,NA,NA,99999,99999,99999,NA,NA,NA,NA,NA,NA,99999,99999,99999
"1104624","USS0011L04S",1985-04-01,"WESD",289.6," "," ","T","Black Flat-U.M. Ck",-111.6,38.68,2884,2858,10.9799995422363,11.2600002288818,-7.21999979019165,3.27999997138977,-4.42000007629395,1.97000002861023,554.559997558594,2.60828675243889,186.09294844237,86.8985977172852,60.7266998291016,99999,NA,NA,99999,99999,99999,NA,NA,NA,NA,NA,NA,99999,99999,99999
"1134322","USS0011L12S",1985-04-01,"WESD",251.5," "," ","T","Gooseberry RS",-111.68,38.8,2423.2,2434,12.8000001907349,13.0500001907349,-5.76999998092651,5.61999988555908,-1.55999994277954,2.71000003814697,689.390014648438,1.77275195764188,347.343812320006,88.4901962280273,62.8264999389648,99999,NA,NA,99999,99999,99999,NA,NA,NA,NA,NA,NA,99999,99999,99999
"1153914","USS0011M03S",1985-04-01,"WESD",406.4," "," ","T","Widtsoe #3",-111.88,37.84,2938.3,2897,11.0799999237061,11.7299995422363,-6.5,4.44000005722046,-2.20000004768372,2.17000007629395,669.75,1.84461475480484,195.200407460125,41.4939994812012,62.9314994812012,99999,NA,NA,99999,99999,99999,NA,NA,NA,NA,NA,NA,99999,99999,99999
"1181194","USS0012J06S",1985-04-01,"WESD",797.6," "," ","T","Rocky Basin-Settleme",-112.24,40.44,2712.7,2801,9.64999961853027,9.60999965667725,-5.44000005722046,4.07999992370605,-1.49000000953674,2.88000011444092,1033.88000488281,15.4601159747304,297.55999341382,122.632598876953,75.5633010864258,99999,NA,NA,99999,99999,99999,NA,NA,NA,NA,NA,NA,99999,99999,99999
"1220533","USS0012K01S",1985-04-01,"WESD",383.5," "," ","T","Vernon Creek",-112.41,39.94,2255.8,2159,13.6999998092651,14,-3.65000009536743,7.63000011444092,1.54999995231628,3.28999996185303,626.210021972656,4.63514412495836,29.4657738926665,59.108097076416,66.0580978393555,99999,NA,NA,99999,99999,99999,NA,NA,NA,NA,NA,NA,99999,99999,99999
"1240993","USS0012L04S",1985-04-01,"WESD",421.6," "," ","T","Box Creek",-112.02,38.51,2995.6,2990,10.1099996566772,10.5,-7.1100001335144,3.86999988555908,-2.38000011444092,2.58999991416931,697.380004882812,3.22107257228089,163.569034462601,72.0634994506836,53.4351005554199,99999,NA,NA,99999,99999,99999,NA,NA,NA,NA,NA,NA,99999,99999,99999
"1261050","USS0012L06S",1985-04-01,"WESD",508," "," ","T","Kimberly Mine",-112.39,38.48,2782.5,2810,11.2399997711182,11.3299999237061,-6.32000017166138,4.78999996185303,-1.6599999666214,2.67000007629395,890.619995117188,11.2162683453706,324.123702985773,85.5974960327148,84.5018005371094,99999,NA,NA,99999,99999,99999,NA,NA,NA,NA,NA,NA,99999,99999,99999
"1277325","USS0012L07S",1985-04-01,"WESD",502.9," "," ","T","Big Flat",-112.36,38.3,3154.4,3146,8.55000019073486,9.36999988555908,-7.86999988555908,2.51999998092651,-3.51999998092651,2.25,862.809997558594,5.98660258488345,283.107105285724,116.113395690918,112.369697570801,99999,NA,NA,99999,99999,99999,NA,NA,NA,NA,NA,NA,99999,99999,99999
"1292918","USS0012L12S",1985-04-01,"WESD",388.6," "," ","T","Merchant Valley",-112.44,38.3,2652.7,2652,12.4399995803833,12.9899997711182,-7.13000011444092,4.36999988555908,-3.71000003814697,2.48000001907349,741.869995117188,4.87798828052245,143.044074714254,94.8209991455078,87.8382949829102,99999,NA,NA,99999,99999,99999,NA,NA,NA,NA,NA,NA,99999,99999,99999
"1306868","USS0012L15S",1985-04-01,"WESD",533.4," "," ","T","Pine Creek",-112.25,38.88,2679.2,2705,10.789999961853,10.7600002288818,-5.90000009536743,5,-0.800000011920929,3.30999994277954,812.340026855469,6.98326839447254,351.194681632549,83.2733993530273,79.4882965087891,99999,NA,NA,99999,99999,99999,NA,NA,NA,NA,NA,NA,99999,99999,99999
"1328010","USS0012M03S",1985-04-01,"WESD",495.3," "," ","T","Webster Flat",-112.9,37.58,2805.1,2743,11.0799999237061,11.0500001907349,-5.44000005722046,5.05999994277954,-0.97000002861023,2.55999994277954,780.309997558594,5.01154470198763,315.37290405088,51.6522979736328,56.7056999206543,99999,NA,NA,99999,99999,99999,NA,NA,NA,NA,NA,NA,99999,99999,99999
"1343634","USS0012M05S",1985-04-01,"WESD",81.3," "," ","T","Harris Flat",-112.58,37.49,2377.4,2380,14.0699996948242,14.8299999237061,-5.73000001907349,5.92000007629395,-2.24000000953674,2.49000000953674,529.700012207031,0.598081956082636,188.737768483677,19.2537002563477,35.0326995849609,99999,NA,NA,99999,99999,99999,NA,NA,NA,NA,NA,NA,99999,99999,99999
"1379315","USS0012M13S",1985-04-01,"WESD",375.9," "," ","T","Castle Valley",-112.74,37.66,2920,2898,10.1700000762939,10.3000001907349,-6.09999990463257,3.4300000667572,-3.3199999332428,2.05999994277954,667.140014648438,2.02499271320834,93.6726618639357,44.8334007263184,58.3622970581055,99999,NA,NA,99999,99999,99999,NA,NA,NA,NA,NA,NA,99999,99999,99999
"1402224","USS0012M23S",1985-04-01,"WESD",789.9," "," ","T","Midway Valley",-112.84,37.57,2987,3036,8.77999973297119,9.38000011444092,-6.82999992370605,2.86999988555908,-3.03999996185303,1.61000001430511,905.690002441406,0.53521997388831,225.54025203458,49.4127006530762,55.4953994750977,99999,NA,NA,99999,99999,99999,NA,NA,NA,NA,NA,NA,99999,99999,99999
"1432666","USS0013M02S",1985-04-01,"WESD",231.1," "," ","T","Long Flat",-113.4,37.51,2438.4,2457,13.2200002670288,12.9700002670288,-4.76000022888184,6.8899998664856,0.560000002384186,2.67000007629395,595.5,2.90604772788548,78.8524870379549,34.6950988769531,75.9520950317383,99999,NA,NA,99999,99999,99999,NA,NA,NA,NA,NA,NA,99999,99999,99999
"1462643","USS0013M05S",1985-04-01,"WESD",675.6," "," ","T","Kolob",-113.05,37.53,2806,2796,10.6599998474121,11.0200004577637,-6.73000001907349,4.73999977111816,-1.17999994754791,2.35999989509583,857.109985351562,3.5935300689077,95.5187032977784,59.4457969665527,71.7574005126953,99999,NA,NA,99999,99999,99999,NA,NA,NA,NA,NA,NA,99999,99999,99999
"74122","USS0009J01S",1986-04-01,"WESD",302.3," "," ","T","King's Cabin",-109.54,40.72,2659.1,2747,9.92000007629395,10.1000003814697,-6.69000005722046,2.34999990463257,-5.23000001907349,1.16999995708466,671.659973144531,4.78612435679289,87.9330736332216,27.7395992279053,98.5160980224609,99999,NA,NA,99999,99999,99999,NA,NA,NA,NA,NA,NA,99999,99999,99999
"90459","USS0009J05S",1986-04-01,"WESD",459.7," "," ","T","Mosby Mtn.",-109.89,40.61,2898.6,2940,9,9.51000022888184,-7.94000005722046,1.80999994277954,-5.3899998664856,1.72000002861023,741.030029296875,1.89678728327232,118.85039185745,22.4615993499756,81.2182006835938,99999,NA,NA,99999,99999,99999,NA,NA,NA,NA,NA,NA,99999,99999,99999
"104192","USS0009J08S",1986-04-01,"WESD",170.2," "," ","T","Hickerson Park",-109.96,40.91,2787.4,2781,10.2200002670288,10.4499998092651,-7.05000019073486,2.20000004768372,-5.82000017166138,1.21000003814697,548.580017089844,3.48667252307866,160.692760555936,29.0303993225098,87.3628005981445,99999,NA,NA,99999,99999,99999,NA,NA,NA,NA,NA,NA,99999,99999,99999
"120529","USS0009J16S",1986-04-01,"WESD",386.1," "," ","T","Trout Creek",-109.67,40.74,2901.1,2854,9.28999996185303,9.56999969482422,-7.01999998092651,1.82000005245209,-5.65999984741211,1.17999994754791,697.659973144531,1.48509419801237,267.774829830569,24.4925994873047,90.3390960693359,99999,NA,NA,99999,99999,99999,NA,NA,NA,NA,NA,NA,99999,99999,99999
"152862","USS0009L03S",1986-04-01,"WESD",322.6," "," ","T","Lasal Mountain",-109.27,38.48,2913.9,2849,11.539999961853,10.9399995803833,-6.28000020980835,5.32999992370605,-0.879999995231628,2.69000005722046,834.97998046875,7.48796762321208,301.127208872154,51.4824981689453,92.2237014770508,99999,NA,NA,99999,99999,99999,NA,NA,NA,NA,NA,NA,99999,99999,99999
"170284","USS0009M02S",1986-04-01,"WESD",317.5," "," ","T","Camp Jackson",-109.49,37.81,2733.4,2638,11.4300003051758,10.0299997329712,-4.65999984741211,5.92000007629395,0.400000005960464,2.75999999046326,715.349975585938,8.54732262685655,272.159046815017,71.8532943725586,120.983093261719,99999,NA,NA,99999,99999,99999,NA,NA,NA,NA,NA,NA,99999,99999,99999
"184017","USS0010J01S",1986-04-01,"WESD",188," "," ","T","Hole-in-Rock",-110.19,40.92,2788.9,2832,9.77000045776367,10.289999961853,-7.19999980926514,1.96000003814697,-5.8600001335144,1.10000002384186,565.909973144531,4.36565797328018,12.2142126904277,45.4468002319336,91.1778945922852,99999,NA,NA,99999,99999,99999,NA,NA,NA,NA,NA,NA,99999,99999,99999
"197750","USS0010J04S",1986-04-01,"WESD",254," "," ","T","Hewinta",-110.48,40.95,2901.4,2905,9.53999996185303,10.1700000762939,-7.73999977111816,1.38999998569489,-6.76999998092651,0.77999997138977,662.460021972656,1.95529107388256,331.747178159237,73.1356964111328,77.2440948486328,99999,NA,NA,99999,99999,99999,NA,NA,NA,NA,NA,NA,99999,99999,99999
"218985","USS0010J10S",1986-04-01,"WESD",510.5," "," ","T","Lakefork #1",-110.43,40.6,3174.5,3138,8.06999969482422,8.9399995803833,-8.5600004196167,0.430000007152557,-7.21000003814697,1.53999996185303,678.039978027344,1.0087942885972,244.612222176501,50.0083999633789,66.1479949951172,99999,NA,NA,99999,99999,99999,NA,NA,NA,NA,NA,NA,99999,99999,99999
"243816","USS0010J18S",1986-04-01,"WESD",307.3," "," ","T","Rock Creek",-110.69,40.55,2404.6,2404,11.6800003051758,11.9700002670288,-5.67999982833862,4.17000007629395,-3.34999990463257,1.89999997615814,609.840026855469,1.17958444335404,230.540740031152,53.225700378418,48.5750999450684,99999,NA,NA,99999,99999,99999,NA,NA,NA,NA,NA,NA,99999,99999,99999
"260153","USS0010J20S",1986-04-01,"WESD",485.1," "," ","T","Steel Creek Park",-110.5,40.91,3109,3086,8.26000022888184,8.94999980926514,-7.3899998664856,1.04999995231628,-6.17000007629395,0.949999988079071,762.510009765625,3.6784973319539,32.0648626684663,86.8357009887695,85.4633941650391,99999,NA,NA,99999,99999,99999,NA,NA,NA,NA,NA,NA,99999,99999,99999
"298066","USS0010J26S",1986-04-01,"WESD",591.8," "," ","T","Five Points Lake",-110.47,40.72,3334.5,3378,7.01999998092651,7.59999990463257,-7.3899998664856,-0.0199999995529652,-7.05999994277954,1.04999995231628,899.590026855469,5.76543064390204,140.480202163667,78.8807983398438,68.4054946899414,99999,NA,NA,99999,99999,99999,NA,NA,NA,NA,NA,NA,99999,99999,99999
"314403","USS0010J30S",1986-04-01,"WESD",696," "," ","T","Brown Duck",-110.59,40.58,3230.9,3176,8.05000019073486,8.86999988555908,-8.47999954223633,0.899999976158142,-6.26000022888184,1.60000002384186,887,1.74620744356898,90.9459424829086,75.3267974853516,79.9032974243164,99999,NA,NA,99999,99999,99999,NA,NA,NA,NA,NA,NA,99999,99999,99999
"329655","USS0010J35S",1986-04-01,"WESD",378.5," "," ","T","Lily Lake",-110.8,40.86,2790.7,2776,10.0600004196167,11.0600004196167,-6.98999977111816,2.22000002861023,-5.63000011444092,1,740.25,3.5403808747547,6.02004792518575,71.9704971313477,65.0101013183594,99999,NA,NA,99999,99999,99999,NA,NA,NA,NA,NA,NA,99999,99999,99999
"345248","USS0010J43S",1986-04-01,"WESD",523.2," "," ","T","Chepeta",-110.01,40.77,3228.4,3188,7.23000001907349,7.8899998664856,-7.38000011444092,0.219999998807907,-6.78999996185303,1.27999997138977,799.5,3.63135708957878,208.798117965602,41.9619979858398,83.6820983886719,99999,NA,NA,99999,99999,99999,NA,NA,NA,NA,NA,NA,99999,99999,99999
"361585","USS0010J44S",1986-04-01,"WESD",426.7," "," ","T","Hayden Fork",-110.88,40.8,2807.8,2815,9.85999965667725,10.7700004577637,-7.23000001907349,1.94000005722046,-5.98000001907349,0.949999988079071,872.460021972656,4.49553122934345,89.7249163672731,102.256896972656,80.1116943359375,99999,NA,NA,99999,99999,99999,NA,NA,NA,NA,NA,NA,99999,99999,99999
"377922","USS0010J52S",1986-04-01,"WESD",1198.9," "," ","T","Trial Lake",-110.95,40.68,3045.6,2985,8.59000015258789,9.34000015258789,-6.84999990463257,1.75999999046326,-5.07999992370605,1.37999999523163,1015.75,1.3284499441869,183.281094004999,120.689498901367,75.6825942993164,99999,NA,NA,99999,99999,99999,NA,NA,NA,NA,NA,NA,99999,99999,99999
"398692","USS0010K01S",1986-04-01,"WESD",515.6," "," ","T","Indian Canyon",-110.75,39.89,2796.5,2716,11.1400003433228,11.3400001525879,-6,4.69000005722046,-1.75999999046326,3,637.429992675781,4.33716023420457,303.421979517047,50.1571998596191,64.0961990356445,99999,NA,NA,99999,99999,99999,NA,NA,NA,NA,NA,NA,99999,99999,99999
"414967","USS0010K02S",1986-04-01,"WESD",406.4," "," ","T","White River #1",-110.99,39.96,2633.8,2643,10.8199996948242,11.039999961853,-5.71000003814697,4.17000007629395,-2.48000001907349,2.38000011444092,594.22998046875,5.27568472332334,256.525474316617,55.4116973876953,48.4776000976562,99999,NA,NA,99999,99999,99999,NA,NA,NA,NA,NA,NA,99999,99999,99999
"455763","USS0011H08S",1986-04-01,"WESD",1511.3," "," ","T","Ben Lomond Peak",-111.94,41.38,2438.4,2050,12.5200004577637,12.3500003814697,-3.75,6.3600001335144,0.189999997615814,2.79999995231628,1422.57995605469,11.1265212121201,70.5683803513235,131.720397949219,35.2219009399414,99999,NA,NA,99999,99999,99999,NA,NA,NA,NA,NA,NA,99999,99999,99999
"472100","USS0011H21S",1986-04-01,"WESD",553.7," "," ","T","Horse Ridge",-111.45,41.31,2487.2,2485,10.3500003814697,9.98999977111816,-4.07999992370605,4.78000020980835,-0.800000011920929,2.46000003814697,932.130004882812,0.435409999082621,160.692614821965,109.118896484375,31.978199005127,99999,NA,NA,99999,99999,99999,NA,NA,NA,NA,NA,NA,99999,99999,99999
"488437","USS0011H25S",1986-04-01,"WESD",248.9," "," ","T","Little Bear",-111.83,41.41,1994.6,1987,12.7200002670288,12.960000038147,-4.15000009536743,6.28999996185303,-0.140000000596046,2.77999997138977,905.559997558594,7.07004097484233,322.309229886841,93.6112976074219,33.2021980285645,99999,NA,NA,99999,99999,99999,NA,NA,NA,NA,NA,NA,99999,99999,99999
"504030","USS0011H30S",1986-04-01,"WESD",629.9," "," ","T","Ben Lomond Trail",-111.92,41.38,1776.7,1791,13.8000001907349,14.3500003814697,-4.07000017166138,6.96000003814697,0.119999997317791,2.96000003814697,1071.18005371094,4.04709191447104,93.7728085489376,131.720397949219,35.2219009399414,99999,NA,NA,99999,99999,99999,NA,NA,NA,NA,NA,NA,99999,99999,99999
"529419","USS0011H36S",1986-04-01,"WESD",1338.6," "," ","T","Tony Grove Lake",-111.63,41.9,2582.9,2586,9.05000019073486,8.6899995803833,-4.26999998092651,3.75999999046326,-1.52999997138977,2.04999995231628,1208.91003417969,3.30430891537223,186.388134160072,187.05729675293,38.336498260498,99999,NA,NA,99999,99999,99999,NA,NA,NA,NA,NA,NA,99999,99999,99999
"545756","USS0011H37S",1986-04-01,"WESD",828," "," ","T","Bug Lake",-111.42,41.68,2423.2,2507,10.0100002288818,10.3100004196167,-4.92000007629395,4.01000022888184,-1.99000000953674,2.16000008583069,772.22998046875,1.74798830921864,209.062748480968,106.781997680664,32.6759986877441,99999,NA,NA,99999,99999,99999,NA,NA,NA,NA,NA,NA,99999,99999,99999
"562093","USS0011H55S",1986-04-01,"WESD",1003.3," "," ","T","Dry Bread Pond",-111.54,41.41,2545.1,2515,9.89000034332275,9.67000007629395,-4.34999990463257,4.32000017166138,-1.25999999046326,2.32999992370605,788.739990234375,2.78678558411374,247.987252610088,107.969497680664,42.6879005432129,99999,NA,NA,99999,99999,99999,NA,NA,NA,NA,NA,NA,99999,99999,99999
"578430","USS0011H57S",1986-04-01,"WESD",990.6," "," ","T","Monte Cristo",-111.5,41.47,2731,2697,8.65999984741211,8.75,-5.15999984741211,3.15000009536743,-2.35999989509583,1.98000001907349,998.820007324219,1.25634628366293,304.212471539667,141.50569152832,48.8178977966309,99999,NA,NA,99999,99999,99999,NA,NA,NA,NA,NA,NA,99999,99999,99999
"614824","USS0011J01S",1986-04-01,"WESD",1018.5," "," ","T","Chalk Creek #1",-111.05,40.85,2741.1,2887,8.73999977111816,9.30000019073486,-6.40000009536743,2.72000002861023,-3.30999994277954,1.78999996185303,1056.92004394531,2.82926220198967,91.6048646992103,104.362098693848,92.0610961914062,99999,NA,NA,99999,99999,99999,NA,NA,NA,NA,NA,NA,99999,99999,99999
"631161","USS0011J02S",1986-04-01,"WESD",574," "," ","T","Chalk Creek #2",-111.07,40.89,2486.6,2454,11.2700004577637,11.6300001144409,-5.25,4.61999988555908,-2.03999996185303,2.11999988555908,734.25,5.67295699457566,319.575750428287,65.3061981201172,54.2271003723145,99999,NA,NA,99999,99999,99999,NA,NA,NA,NA,NA,NA,99999,99999,99999
"651187","USS0011J08S",1986-04-01,"WESD",584.2," "," ","T","Strawberry Divide",-111.21,40.16,2475.9,2495,11.8400001525879,12.1899995803833,-5.09000015258789,4.92000007629395,-2.00999999046326,2.32999992370605,730.950012207031,5.74489855501885,103.968250946965,72.3123016357422,37.7078971862793,99999,NA,NA,99999,99999,99999,NA,NA,NA,NA,NA,NA,99999,99999,99999
"667524","USS0011J11S",1986-04-01,"WESD",1130.3," "," ","T","Farmington",-111.82,40.99,2438.4,2150,11.7600002288818,11.1000003814697,-3.73000001907349,5.57000017166138,-0.620000004768372,2.38000011444092,1131.77001953125,0.736637377466184,251.158862176166,156.68359375,71.0698013305664,99999,NA,NA,99999,99999,99999,NA,NA,NA,NA,NA,NA,99999,99999,99999
"690836","USS0011J21S",1986-04-01,"WESD",1013.5," "," ","T","Timpanogos Divide",-111.62,40.43,2481.1,2547,10.3999996185303,9.78999996185303,-4.30000019073486,5.34000015258789,0.280000001192093,3.03999996185303,1015.34997558594,9.92744006770794,24.6721777132582,80.8000946044922,84.3266983032227,99999,NA,NA,99999,99999,99999,NA,NA,NA,NA,NA,NA,99999,99999,99999
"710893","USS0011J23S",1986-04-01,"WESD",675.6," "," ","T","Daniels-Strawberry",-111.26,40.3,2449.7,2494,11.6899995803833,12.1700000762939,-5.44999980926514,4.94000005722046,-1.82000005245209,2.4300000667572,814.159973144531,5.36703491579627,67.4774835823557,77.9416961669922,43.6414985656738,99999,NA,NA,99999,99999,99999,NA,NA,NA,NA,NA,NA,99999,99999,99999
"727230","USS0011J32S",1986-04-01,"WESD",269.2," "," ","T","Currant Creek",-111.09,40.36,2438.4,2470,12.0500001907349,12.6199998855591,-6.1399998664856,3.6800000667572,-4.69999980926514,1.47000002861023,604.460021972656,2.4642155426093,159.327353873063,63.2824974060059,39.5912971496582,99999,NA,NA,99999,99999,99999,NA,NA,NA,NA,NA,NA,99999,99999,99999
"766600","USS0011J46S",1986-04-01,"WESD",340.4," "," ","T","Beaver Divide",-111.1,40.61,2523.7,2515,11.3800001144409,11.9499998092651,-5.59999990463257,4.32999992370605,-2.72000002861023,2.04999995231628,750.590026855469,4.65446720078018,233.92588182993,73.0944976806641,44.7355003356934,99999,NA,NA,99999,99999,99999,NA,NA,NA,NA,NA,NA,99999,99999,99999
"782937","USS0011J52S",1986-04-01,"WESD",403.9," "," ","T","Parley's Summit",-111.63,40.76,2286,2275,12.2700004577637,11.710000038147,-3.49000000953674,6.3600001335144,0.439999997615814,2.75,875.150024414062,3.33201501347664,207.345231353265,115.447494506836,58.8490982055664,99999,NA,NA,99999,99999,99999,NA,NA,NA,NA,NA,NA,99999,99999,99999
"799274","USS0011J53S",1986-04-01,"WESD",421.6," "," ","T","Smith & Morehouse",-111.12,40.79,2316.5,2275,12.5799999237061,12.9300003051758,-5.28000020980835,4.75,-3.07999992370605,1.63999998569489,782.039978027344,5.16098004073292,185.914557319693,62.9459991455078,51.7645988464355,99999,NA,NA,99999,99999,99999,NA,NA,NA,NA,NA,NA,99999,99999,99999
"891096","USS0011K03S",1986-04-01,"WESD",736.6," "," ","T","Mammoth-Cottonwood",-111.32,39.68,2660,2680,10.8900003433228,11.1700000762939,-6.30000019073486,3.94000005722046,-3.01999998092651,2.60999989509583,701.650024414062,0.22346049037465,194.566453578573,80.0170974731445,55.8951988220215,99999,NA,NA,99999,99999,99999,NA,NA,NA,NA,NA,NA,99999,99999,99999
"910719","USS0011K09S",1986-04-01,"WESD",528.3," "," ","T","Seeley Creek",-111.43,39.31,3020.6,3033,7.82999992370605,8.8100004196167,-7.76999998092651,2.41000008583069,-3.01999998092651,2.55999994277954,671.099975585938,2.16219638601502,68.4943559080264,76.3714981079102,66.8536987304688,99999,NA,NA,99999,99999,99999,NA,NA,NA,NA,NA,NA,99999,99999,99999
"937379","USS0011K13S",1986-04-01,"WESD",198.1," "," ","T","Beaver Dams",-111.56,39.14,2435.4,2552,12.2200002670288,12.1899995803833,-6.11999988555908,5.48999977111816,-1.25,3.24000000953674,729.080017089844,7.20838991853368,184.561361646288,68.1595993041992,52.3473968505859,99999,NA,NA,99999,99999,99999,NA,NA,NA,NA,NA,NA,99999,99999,99999
"953375","USS0011K15S",1986-04-01,"WESD",386.1," "," ","T","Dill's Camp",-111.47,39.05,2798.7,2797,10.9799995422363,11.1599998474121,-6.90999984741211,4.30999994277954,-2.36999988555908,2.98000001907349,735.859985351562,5.48770061889082,101.023758896381,92.5612945556641,57.9984970092773,99999,NA,NA,99999,99999,99999,NA,NA,NA,NA,NA,NA,99999,99999,99999
"969712","USS0011K21S",1986-04-01,"WESD",665.5," "," ","T","Clear Creek #1",-111.28,39.87,2715.2,2714,10.2799997329712,10.4499998092651,-6.05000019073486,4.48000001907349,-1.32000005245209,2.8199999332428,755.989990234375,6.00667940708831,332.535020305551,80.8246994018555,58.0048980712891,99999,NA,NA,99999,99999,99999,NA,NA,NA,NA,NA,NA,99999,99999,99999
"986049","USS0011K22S",1986-04-01,"WESD",414," "," ","T","Clear Creek #2",-111.25,39.89,2334.5,2450,11.9700002670288,12.3800001144409,-6.03000020980835,4.88000011444092,-2.22000002861023,2.70000004768372,686.090026855469,6.59225011519032,345.201253611563,80.1501007080078,56.879997253418,99999,NA,NA,99999,99999,99999,NA,NA,NA,NA,NA,NA,99999,99999,99999
"1002324","USS0011K28S",1986-04-01,"WESD",485.1," "," ","T","Red Pine Ridge",-111.27,39.45,2745.9,2763,10.6000003814697,10.8699998855591,-6.78999996185303,3.65000009536743,-3.30999994277954,2.65000009536743,814.190002441406,4.70530032984807,114.666772157214,71.9449005126953,48.0641975402832,99999,NA,NA,99999,99999,99999,NA,NA,NA,NA,NA,NA,99999,99999,99999
"1022350","USS0011K31S",1986-04-01,"WESD",566.4," "," ","T","Buck Flat",-111.44,39.13,2874.3,2939,10,10.210000038147,-7.30000019073486,3.51999998092651,-2.97000002861023,2.76999998092651,822.409973144531,5.49631118416305,34.266771476008,103.527694702148,77.1439971923828,99999,NA,NA,99999,99999,99999,NA,NA,NA,NA,NA,NA,99999,99999,99999
"1049754","USS0011K39S",1986-04-01,"WESD",401.3," "," ","T","Pickle Keg",-111.58,39.01,2926.1,2703,11.5,11.3000001907349,-5.86999988555908,5.57000017166138,-0.360000014305115,3.38000011444092,807.539978027344,6.62397589322553,174.077515134122,95.8902969360352,79.5412979125977,99999,NA,NA,99999,99999,99999,NA,NA,NA,NA,NA,NA,99999,99999,99999
"1065347","USS0011K52S",1986-04-01,"WESD",561.3," "," ","T","Payson R.S.",-111.63,39.93,2458.5,2461,11.6599998474121,11.6499996185303,-5.3600001335144,5.75,-0.170000001788139,3.0699999332428,716.820007324219,3.48181324270455,72.6748988934745,74.943000793457,55.966796875,99999,NA,NA,99999,99999,99999,NA,NA,NA,NA,NA,NA,99999,99999,99999
